[{"city": "Kahlotus", "state_id": "WA", "lat": "46.6436", "lng": "-118.5566", "population": "189"}, {"city": "Washtucna", "state_id": "WA", "lat": "46.7539", "lng": "-118.3104", "population": "195"}, {"city": "Toledo", "state_id": "WA", "lat": "46.4412", "lng": "-122.8494", "population": "738"}, {"city": "Renton", "state_id": "WA", "lat": "47.4757", "lng": "-122.1904", "population": "100953"}, {"city": "Chehalis", "state_id": "WA", "lat": "46.6649", "lng": "-122.9660", "population": "7498"}, {"city": "Waverly", "state_id": "WA", "lat": "47.3380", "lng": "-117.2313", "population": "110"}, {"city": "Mercer Island", "state_id": "WA", "lat": "47.5624", "lng": "-122.2265", "population": "25134"}, {"city": "Lynnwood", "state_id": "WA", "lat": "47.8285", "lng": "-122.3034", "population": "38092"}, {"city": "Coulee City", "state_id": "WA", "lat": "47.6123", "lng": "-119.2890", "population": "569"}, {"city": "Centralia", "state_id": "WA", "lat": "46.7226", "lng": "-122.9695", "population": "41077.0"}, {"city": "Mountlake Terrace", "state_id": "WA", "lat": "47.7921", "lng": "-122.3077", "population": "21182"}, {"city": "Ilwaco", "state_id": "WA", "lat": "46.3099", "lng": "-124.0417", "population": "929"}, {"city": "Oakesdale", "state_id": "WA", "lat": "47.1304", "lng": "-117.2465", "population": "435"}, {"city": "Seattle", "state_id": "WA", "lat": "47.6217", "lng": "-122.3238", "population": "3541236.0"}, {"city": "George", "state_id": "WA", "lat": "47.0847", "lng": "-119.8601", "population": "495"}, {"city": "Index", "state_id": "WA", "lat": "47.8214", "lng": "-121.5560", "population": "199"}, {"city": "Rosalia", "state_id": "WA", "lat": "47.2365", "lng": "-117.3762", "population": "565"}, {"city": "Liberty Lake", "state_id": "WA", "lat": "47.6687", "lng": "-117.1031", "population": "9209"}, {"city": "Airway Heights", "state_id": "WA", "lat": "47.6464", "lng": "-117.5802", "population": "6672"}, {"city": "Reardan", "state_id": "WA", "lat": "47.6700", "lng": "-117.8778", "population": "567"}, {"city": "Brier", "state_id": "WA", "lat": "47.7924", "lng": "-122.2736", "population": "6743"}, {"city": "Port Townsend", "state_id": "WA", "lat": "48.1219", "lng": "-122.7873", "population": "8782.0"}, {"city": "Waterville", "state_id": "WA", "lat": "47.6480", "lng": "-120.0707", "population": "1181"}, {"city": "Hamilton", "state_id": "WA", "lat": "48.5281", "lng": "-121.9837", "population": "299"}, {"city": "Oak Harbor", "state_id": "WA", "lat": "48.2965", "lng": "-122.6331", "population": "34689.0"}, {"city": "Naches", "state_id": "WA", "lat": "46.7270", "lng": "-120.6941", "population": "823"}, {"city": "Anacortes", "state_id": "WA", "lat": "48.4878", "lng": "-122.6291", "population": "17667.0"}, {"city": "Kettle Falls", "state_id": "WA", "lat": "48.6055", "lng": "-118.0612", "population": "1604"}, {"city": "Electric City", "state_id": "WA", "lat": "47.9222", "lng": "-119.0476", "population": "1001"}, {"city": "Kalama", "state_id": "WA", "lat": "46.0115", "lng": "-122.8369", "population": "3508.0"}, {"city": "Grandview", "state_id": "WA", "lat": "46.2432", "lng": "-119.9082", "population": "18909.0"}, {"city": "Winthrop", "state_id": "WA", "lat": "48.4719", "lng": "-120.1790", "population": "430"}, {"city": "Spangle", "state_id": "WA", "lat": "47.4297", "lng": "-117.3813", "population": "297"}, {"city": "Quincy", "state_id": "WA", "lat": "47.2342", "lng": "-119.8512", "population": "7644.0"}, {"city": "Starbuck", "state_id": "WA", "lat": "46.5184", "lng": "-118.1251", "population": "126"}, {"city": "Kelso", "state_id": "WA", "lat": "46.1249", "lng": "-122.8907", "population": "12047"}, {"city": "Cheney", "state_id": "WA", "lat": "47.4900", "lng": "-117.5789", "population": "12213.0"}, {"city": "Woodway", "state_id": "WA", "lat": "47.7906", "lng": "-122.3849", "population": "1377"}, {"city": "Lacey", "state_id": "WA", "lat": "47.0444", "lng": "-122.7933", "population": "47688"}, {"city": "Harrah", "state_id": "WA", "lat": "46.4070", "lng": "-120.5422", "population": "624"}, {"city": "South Bend", "state_id": "WA", "lat": "46.6683", "lng": "-123.8016", "population": "1636"}, {"city": "Warden", "state_id": "WA", "lat": "46.9682", "lng": "-119.0512", "population": "2706.0"}, {"city": "Selah", "state_id": "WA", "lat": "46.6480", "lng": "-120.5388", "population": "7768"}, {"city": "Sultan", "state_id": "WA", "lat": "47.8703", "lng": "-121.8036", "population": "8681.0"}, {"city": "Edmonds", "state_id": "WA", "lat": "47.8114", "lng": "-122.3534", "population": "41840"}, {"city": "Zillah", "state_id": "WA", "lat": "46.4085", "lng": "-120.2730", "population": "3144"}, {"city": "Lake Forest Park", "state_id": "WA", "lat": "47.7592", "lng": "-122.2877", "population": "13266"}, {"city": "Albion", "state_id": "WA", "lat": "46.7920", "lng": "-117.2506", "population": "591"}, {"city": "Skykomish", "state_id": "WA", "lat": "47.7103", "lng": "-121.3585", "population": "206"}, {"city": "Yakima", "state_id": "WA", "lat": "46.5926", "lng": "-120.5492", "population": "133687.0"}, {"city": "Pacific", "state_id": "WA", "lat": "47.2610", "lng": "-122.2507", "population": "7122"}, {"city": "Eatonville", "state_id": "WA", "lat": "46.8682", "lng": "-122.2697", "population": "3005.0"}, {"city": "Tenino", "state_id": "WA", "lat": "46.8538", "lng": "-122.8603", "population": "1819"}, {"city": "Raymond", "state_id": "WA", "lat": "46.6841", "lng": "-123.7375", "population": "4066.0"}, {"city": "Roy", "state_id": "WA", "lat": "46.9971", "lng": "-122.5424", "population": "822"}, {"city": "Snoqualmie", "state_id": "WA", "lat": "47.5292", "lng": "-121.8409", "population": "25455.0"}, {"city": "Lynden", "state_id": "WA", "lat": "48.9502", "lng": "-122.4542", "population": "16966.0"}, {"city": "Everson", "state_id": "WA", "lat": "48.9124", "lng": "-122.3509", "population": "4596.0"}, {"city": "Federal Way", "state_id": "WA", "lat": "47.3091", "lng": "-122.3358", "population": "96757"}, {"city": "Hartline", "state_id": "WA", "lat": "47.6894", "lng": "-119.1081", "population": "155"}, {"city": "Sumas", "state_id": "WA", "lat": "48.9955", "lng": "-122.2695", "population": "1409"}, {"city": "Mill Creek", "state_id": "WA", "lat": "47.8631", "lng": "-122.2037", "population": "20303"}, {"city": "Lakewood", "state_id": "WA", "lat": "47.1627", "lng": "-122.5299", "population": "60665"}, {"city": "Port Angeles", "state_id": "WA", "lat": "48.1141", "lng": "-123.4565", "population": "23818.0"}, {"city": "Wapato", "state_id": "WA", "lat": "46.4435", "lng": "-120.4213", "population": "7723.0"}, {"city": "Medical Lake", "state_id": "WA", "lat": "47.5713", "lng": "-117.6896", "population": "4825.0"}, {"city": "Lyman", "state_id": "WA", "lat": "48.5230", "lng": "-122.0634", "population": "454"}, {"city": "Arlington", "state_id": "WA", "lat": "48.1698", "lng": "-122.1440", "population": "19112"}, {"city": "Ruston", "state_id": "WA", "lat": "47.2982", "lng": "-122.5104", "population": "816"}, {"city": "McCleary", "state_id": "WA", "lat": "47.0584", "lng": "-123.2725", "population": "1630"}, {"city": "Sammamish", "state_id": "WA", "lat": "47.6045", "lng": "-122.0446", "population": "63773"}, {"city": "Covington", "state_id": "WA", "lat": "47.3665", "lng": "-122.1050", "population": "20478"}, {"city": "Wenatchee", "state_id": "WA", "lat": "47.4251", "lng": "-120.3290", "population": "71426.0"}, {"city": "Mattawa", "state_id": "WA", "lat": "46.7365", "lng": "-119.9023", "population": "4961.0"}, {"city": "Colton", "state_id": "WA", "lat": "46.5677", "lng": "-117.1284", "population": "466"}, {"city": "Cle Elum", "state_id": "WA", "lat": "47.1937", "lng": "-120.9575", "population": "3685.0"}, {"city": "Omak", "state_id": "WA", "lat": "48.4214", "lng": "-119.5178", "population": "8208.0"}, {"city": "Harrington", "state_id": "WA", "lat": "47.4799", "lng": "-118.2555", "population": "401"}, {"city": "Sedro-Woolley", "state_id": "WA", "lat": "48.5095", "lng": "-122.2344", "population": "11476"}, {"city": "Roslyn", "state_id": "WA", "lat": "47.2511", "lng": "-121.0992", "population": "927"}, {"city": "Deer Park", "state_id": "WA", "lat": "47.9642", "lng": "-117.4398", "population": "3780.0"}, {"city": "Hunts Point", "state_id": "WA", "lat": "47.6418", "lng": "-122.2289", "population": "439"}, {"city": "Chewelah", "state_id": "WA", "lat": "48.2929", "lng": "-117.7337", "population": "2635"}, {"city": "Sunnyside", "state_id": "WA", "lat": "46.3159", "lng": "-120.0058", "population": "17931.0"}, {"city": "Normandy Park", "state_id": "WA", "lat": "47.4344", "lng": "-122.3436", "population": "6651"}, {"city": "Forks", "state_id": "WA", "lat": "47.9526", "lng": "-124.3906", "population": "4219.0"}, {"city": "SeaTac", "state_id": "WA", "lat": "47.4444", "lng": "-122.2985", "population": "28873"}, {"city": "Royal City", "state_id": "WA", "lat": "46.9000", "lng": "-119.6143", "population": "2196"}, {"city": "Beaux Arts Village", "state_id": "WA", "lat": "47.5853", "lng": "-122.2009", "population": "326"}, {"city": "Steilacoom", "state_id": "WA", "lat": "47.1702", "lng": "-122.5938", "population": "6309"}, {"city": "Northport", "state_id": "WA", "lat": "48.9158", "lng": "-117.7799", "population": "290"}, {"city": "Ridgefield", "state_id": "WA", "lat": "45.8112", "lng": "-122.7053", "population": "6318.0"}, {"city": "Creston", "state_id": "WA", "lat": "47.7596", "lng": "-118.5199", "population": "218"}, {"city": "Soap Lake", "state_id": "WA", "lat": "47.3884", "lng": "-119.4905", "population": "1571"}, {"city": "Clyde Hill", "state_id": "WA", "lat": "47.6303", "lng": "-122.2180", "population": "3268"}, {"city": "Grand Coulee", "state_id": "WA", "lat": "47.9388", "lng": "-119.0030", "population": "1044"}, {"city": "Kennewick", "state_id": "WA", "lat": "46.1979", "lng": "-119.1732", "population": "229624.0"}, {"city": "Carbonado", "state_id": "WA", "lat": "47.0805", "lng": "-122.0537", "population": "663"}, {"city": "Pullman", "state_id": "WA", "lat": "46.7327", "lng": "-117.1634", "population": "33204.0"}, {"city": "Longview", "state_id": "WA", "lat": "46.1471", "lng": "-122.9642", "population": "65156.0"}, {"city": "West Richland", "state_id": "WA", "lat": "46.3115", "lng": "-119.3996", "population": "14198"}, {"city": "Sprague", "state_id": "WA", "lat": "47.3003", "lng": "-117.9757", "population": "427"}, {"city": "Cosmopolis", "state_id": "WA", "lat": "46.9541", "lng": "-123.7727", "population": "1601"}, {"city": "North Bonneville", "state_id": "WA", "lat": "45.6426", "lng": "-121.9695", "population": "980"}, {"city": "Pomeroy", "state_id": "WA", "lat": "46.4739", "lng": "-117.5971", "population": "1410"}, {"city": "Colville", "state_id": "WA", "lat": "48.5450", "lng": "-117.8975", "population": "5088.0"}, {"city": "Medina", "state_id": "WA", "lat": "47.6257", "lng": "-122.2338", "population": "3246"}, {"city": "Algona", "state_id": "WA", "lat": "47.2819", "lng": "-122.2504", "population": "3156"}, {"city": "Black Diamond", "state_id": "WA", "lat": "47.3130", "lng": "-122.0181", "population": "4384"}, {"city": "Gold Bar", "state_id": "WA", "lat": "47.8562", "lng": "-121.6919", "population": "2131"}, {"city": "Mesa", "state_id": "WA", "lat": "46.5736", "lng": "-119.0013", "population": "486"}, {"city": "La Conner", "state_id": "WA", "lat": "48.3925", "lng": "-122.4945", "population": "3464.0"}, {"city": "Stevenson", "state_id": "WA", "lat": "45.6944", "lng": "-121.8933", "population": "1527"}, {"city": "La Crosse", "state_id": "WA", "lat": "46.8027", "lng": "-117.9014", "population": "317"}, {"city": "Malden", "state_id": "WA", "lat": "47.2296", "lng": "-117.4732", "population": "205"}, {"city": "Prosser", "state_id": "WA", "lat": "46.2065", "lng": "-119.7659", "population": "6040"}, {"city": "Maple Valley", "state_id": "WA", "lat": "47.3664", "lng": "-122.0370", "population": "25698"}, {"city": "Auburn", "state_id": "WA", "lat": "47.3039", "lng": "-122.2108", "population": "77472"}, {"city": "Burlington", "state_id": "WA", "lat": "48.4676", "lng": "-122.3298", "population": "8768"}, {"city": "Connell", "state_id": "WA", "lat": "46.6627", "lng": "-118.8403", "population": "5243.0"}, {"city": "Kittitas", "state_id": "WA", "lat": "46.9844", "lng": "-120.4198", "population": "1439"}, {"city": "Bucoda", "state_id": "WA", "lat": "46.7969", "lng": "-122.8679", "population": "575"}, {"city": "Bainbridge Island", "state_id": "WA", "lat": "47.6439", "lng": "-122.5434", "population": "24404"}, {"city": "Republic", "state_id": "WA", "lat": "48.6485", "lng": "-118.7330", "population": "1069"}, {"city": "Odessa", "state_id": "WA", "lat": "47.3326", "lng": "-118.6893", "population": "869"}, {"city": "Edgewood", "state_id": "WA", "lat": "47.2309", "lng": "-122.2832", "population": "10734"}, {"city": "Shoreline", "state_id": "WA", "lat": "47.7563", "lng": "-122.3425", "population": "55333"}, {"city": "Cusick", "state_id": "WA", "lat": "48.3327", "lng": "-117.2963", "population": "208"}, {"city": "Concrete", "state_id": "WA", "lat": "48.5371", "lng": "-121.7511", "population": "724"}, {"city": "Langley", "state_id": "WA", "lat": "48.0336", "lng": "-122.4080", "population": "1097"}, {"city": "Othello", "state_id": "WA", "lat": "46.8226", "lng": "-119.1654", "population": "12324.0"}, {"city": "Colfax", "state_id": "WA", "lat": "46.9032", "lng": "-117.3386", "population": "2806.0"}, {"city": "Metaline", "state_id": "WA", "lat": "48.8539", "lng": "-117.3898", "population": "172"}, {"city": "Millwood", "state_id": "WA", "lat": "47.6858", "lng": "-117.2805", "population": "1787"}, {"city": "Prescott", "state_id": "WA", "lat": "46.2989", "lng": "-118.3126", "population": "304"}, {"city": "Buckley", "state_id": "WA", "lat": "47.1614", "lng": "-122.0200", "population": "4682"}, {"city": "University Place", "state_id": "WA", "lat": "47.2146", "lng": "-122.5461", "population": "33288"}, {"city": "Morton", "state_id": "WA", "lat": "46.5576", "lng": "-122.2815", "population": "1145"}, {"city": "Palouse", "state_id": "WA", "lat": "46.9103", "lng": "-117.0753", "population": "1045"}, {"city": "Vader", "state_id": "WA", "lat": "46.4046", "lng": "-122.9569", "population": "629"}, {"city": "Asotin", "state_id": "WA", "lat": "46.3372", "lng": "-117.0430", "population": "1295"}, {"city": "Poulsbo", "state_id": "WA", "lat": "47.7417", "lng": "-122.6408", "population": "10400"}, {"city": "Hoquiam", "state_id": "WA", "lat": "46.9857", "lng": "-123.9006", "population": "8434"}, {"city": "Nespelem", "state_id": "WA", "lat": "48.1669", "lng": "-118.9724", "population": "283"}, {"city": "Ephrata", "state_id": "WA", "lat": "47.3119", "lng": "-119.5342", "population": "7289.0"}, {"city": "Kent", "state_id": "WA", "lat": "47.3887", "lng": "-122.2128", "population": "127514"}, {"city": "Mukilteo", "state_id": "WA", "lat": "47.9096", "lng": "-122.3035", "population": "21462"}, {"city": "Kirkland", "state_id": "WA", "lat": "47.6996", "lng": "-122.1982", "population": "87701"}, {"city": "Waitsburg", "state_id": "WA", "lat": "46.2696", "lng": "-118.1499", "population": "1187"}, {"city": "Redmond", "state_id": "WA", "lat": "47.6776", "lng": "-122.1176", "population": "62458"}, {"city": "Wilkeson", "state_id": "WA", "lat": "47.1034", "lng": "-122.0496", "population": "492"}, {"city": "Granger", "state_id": "WA", "lat": "46.3459", "lng": "-120.1928", "population": "3493.0"}, {"city": "Yarrow Point", "state_id": "WA", "lat": "47.6452", "lng": "-122.2178", "population": "1096"}, {"city": "Oakville", "state_id": "WA", "lat": "46.8402", "lng": "-123.2348", "population": "665"}, {"city": "Tukwila", "state_id": "WA", "lat": "47.4749", "lng": "-122.2727", "population": "20033"}, {"city": "Newport", "state_id": "WA", "lat": "48.1791", "lng": "-117.0546", "population": "2608.0"}, {"city": "Yelm", "state_id": "WA", "lat": "46.9398", "lng": "-122.6261", "population": "16125.0"}, {"city": "Olympia", "state_id": "WA", "lat": "47.0417", "lng": "-122.8958", "population": "194532.0"}, {"city": "Endicott", "state_id": "WA", "lat": "46.9280", "lng": "-117.6865", "population": "291"}, {"city": "Lind", "state_id": "WA", "lat": "46.9706", "lng": "-118.6140", "population": "550"}, {"city": "Fife", "state_id": "WA", "lat": "47.2327", "lng": "-122.3519", "population": "10103"}, {"city": "Pateros", "state_id": "WA", "lat": "48.0555", "lng": "-119.9000", "population": "688"}, {"city": "Port Orchard", "state_id": "WA", "lat": "47.5160", "lng": "-122.6616", "population": "13945"}, {"city": "Tieton", "state_id": "WA", "lat": "46.7027", "lng": "-120.7560", "population": "1276"}, {"city": "Bingen", "state_id": "WA", "lat": "45.7151", "lng": "-121.4695", "population": "722"}, {"city": "Farmington", "state_id": "WA", "lat": "47.0887", "lng": "-117.0464", "population": "156"}, {"city": "Bremerton", "state_id": "WA", "lat": "47.5436", "lng": "-122.7121", "population": "214549.0"}, {"city": "Friday Harbor", "state_id": "WA", "lat": "48.5324", "lng": "-123.0656", "population": "2338"}, {"city": "Carnation", "state_id": "WA", "lat": "47.6443", "lng": "-121.9041", "population": "1995"}, {"city": "Lake Stevens", "state_id": "WA", "lat": "48.0028", "lng": "-122.0964", "population": "31679"}, {"city": "Mossyrock", "state_id": "WA", "lat": "46.5305", "lng": "-122.4887", "population": "763"}, {"city": "Bridgeport", "state_id": "WA", "lat": "48.0062", "lng": "-119.6732", "population": "2509"}, {"city": "Brewster", "state_id": "WA", "lat": "48.1034", "lng": "-119.7758", "population": "2341"}, {"city": "Rock Island", "state_id": "WA", "lat": "47.3738", "lng": "-120.1369", "population": "932"}, {"city": "Rockford", "state_id": "WA", "lat": "47.4512", "lng": "-117.1309", "population": "468"}, {"city": "Montesano", "state_id": "WA", "lat": "47.0108", "lng": "-123.5868", "population": "8385.0"}, {"city": "Tekoa", "state_id": "WA", "lat": "47.2254", "lng": "-117.0740", "population": "808"}, {"city": "La Center", "state_id": "WA", "lat": "45.8585", "lng": "-122.6752", "population": "3098.0"}, {"city": "Sequim", "state_id": "WA", "lat": "48.0747", "lng": "-123.0948", "population": "20330.0"}, {"city": "Ione", "state_id": "WA", "lat": "48.7401", "lng": "-117.4224", "population": "450"}, {"city": "Tacoma", "state_id": "WA", "lat": "47.2431", "lng": "-122.4531", "population": "211277"}, {"city": "Yacolt", "state_id": "WA", "lat": "45.8653", "lng": "-122.4065", "population": "1690"}, {"city": "Coulee Dam", "state_id": "WA", "lat": "47.9688", "lng": "-118.9759", "population": "1090"}, {"city": "Woodinville", "state_id": "WA", "lat": "47.7568", "lng": "-122.1479", "population": "12000"}, {"city": "Riverside", "state_id": "WA", "lat": "48.5046", "lng": "-119.5109", "population": "268"}, {"city": "Ocean Shores", "state_id": "WA", "lat": "46.9686", "lng": "-124.1521", "population": "5463.0"}, {"city": "Mansfield", "state_id": "WA", "lat": "47.8118", "lng": "-119.6384", "population": "334"}, {"city": "Springdale", "state_id": "WA", "lat": "48.0572", "lng": "-117.7466", "population": "276"}, {"city": "Okanogan", "state_id": "WA", "lat": "48.3683", "lng": "-119.5775", "population": "2561"}, {"city": "Moses Lake", "state_id": "WA", "lat": "47.1276", "lng": "-119.2762", "population": "36662.0"}, {"city": "Mabton", "state_id": "WA", "lat": "46.2115", "lng": "-119.9937", "population": "2544.0"}, {"city": "Puyallup", "state_id": "WA", "lat": "47.1794", "lng": "-122.2901", "population": "40640"}, {"city": "Cathlamet", "state_id": "WA", "lat": "46.2058", "lng": "-123.3836", "population": "545"}, {"city": "Sumner", "state_id": "WA", "lat": "47.2190", "lng": "-122.2337", "population": "9969"}, {"city": "Davenport", "state_id": "WA", "lat": "47.6562", "lng": "-118.1519", "population": "1688"}, {"city": "Walla Walla", "state_id": "WA", "lat": "46.0678", "lng": "-118.3364", "population": "56509.0"}, {"city": "South Cle Elum", "state_id": "WA", "lat": "47.1859", "lng": "-120.9522", "population": "547"}, {"city": "Almira", "state_id": "WA", "lat": "47.7105", "lng": "-118.9369", "population": "267"}, {"city": "Bothell", "state_id": "WA", "lat": "47.7740", "lng": "-122.2039", "population": "44546"}, {"city": "Tumwater", "state_id": "WA", "lat": "46.9925", "lng": "-122.9227", "population": "22538"}, {"city": "Uniontown", "state_id": "WA", "lat": "46.5390", "lng": "-117.0862", "population": "333"}, {"city": "Coupeville", "state_id": "WA", "lat": "48.2172", "lng": "-122.6778", "population": "1920"}, {"city": "Duvall", "state_id": "WA", "lat": "47.7354", "lng": "-121.9726", "population": "7701"}, {"city": "Marcus", "state_id": "WA", "lat": "48.6643", "lng": "-118.0600", "population": "187"}, {"city": "Rainier", "state_id": "WA", "lat": "46.8917", "lng": "-122.6866", "population": "2011"}, {"city": "Monroe", "state_id": "WA", "lat": "47.8594", "lng": "-121.9854", "population": "18408"}, {"city": "Clarkston", "state_id": "WA", "lat": "46.4154", "lng": "-117.0501", "population": "7341"}, {"city": "Gig Harbor", "state_id": "WA", "lat": "47.3350", "lng": "-122.5966", "population": "9110"}, {"city": "Des Moines", "state_id": "WA", "lat": "47.3914", "lng": "-122.3154", "population": "31172"}, {"city": "Metaline Falls", "state_id": "WA", "lat": "48.8616", "lng": "-117.3707", "population": "242"}, {"city": "Snohomish", "state_id": "WA", "lat": "47.9277", "lng": "-122.0971", "population": "9915"}, {"city": "Richland", "state_id": "WA", "lat": "46.2828", "lng": "-119.2939", "population": "54989"}, {"city": "Woodland", "state_id": "WA", "lat": "45.9147", "lng": "-122.7503", "population": "6333.0"}, {"city": "Washougal", "state_id": "WA", "lat": "45.5812", "lng": "-122.3433", "population": "15466"}, {"city": "Bonney Lake", "state_id": "WA", "lat": "47.1789", "lng": "-122.1698", "population": "20310"}, {"city": "South Prairie", "state_id": "WA", "lat": "47.1373", "lng": "-122.0940", "population": "435"}, {"city": "Saint John", "state_id": "WA", "lat": "47.0912", "lng": "-117.5883", "population": "558"}, {"city": "Spokane Valley", "state_id": "WA", "lat": "47.6625", "lng": "-117.2345", "population": "96340"}, {"city": "Bellevue", "state_id": "WA", "lat": "47.5953", "lng": "-122.1550", "population": "141400"}, {"city": "Marysville", "state_id": "WA", "lat": "48.0812", "lng": "-122.1559", "population": "163547.0"}, {"city": "Newcastle", "state_id": "WA", "lat": "47.5304", "lng": "-122.1633", "population": "11567"}, {"city": "North Bend", "state_id": "WA", "lat": "47.4899", "lng": "-121.7741", "population": "6739"}, {"city": "Wilbur", "state_id": "WA", "lat": "47.7579", "lng": "-118.7144", "population": "835"}, {"city": "Enumclaw", "state_id": "WA", "lat": "47.2018", "lng": "-121.9898", "population": "11654"}, {"city": "Napavine", "state_id": "WA", "lat": "46.5856", "lng": "-122.9043", "population": "1868"}, {"city": "Hatton", "state_id": "WA", "lat": "46.7736", "lng": "-118.8276", "population": "100"}, {"city": "Shelton", "state_id": "WA", "lat": "47.2186", "lng": "-123.1128", "population": "18981.0"}, {"city": "Bellingham", "state_id": "WA", "lat": "48.7534", "lng": "-122.4683", "population": "123933.0"}, {"city": "Castle Rock", "state_id": "WA", "lat": "46.2717", "lng": "-122.9056", "population": "2805.0"}, {"city": "Nooksack", "state_id": "WA", "lat": "48.9276", "lng": "-122.3213", "population": "1525"}, {"city": "Elma", "state_id": "WA", "lat": "47.0070", "lng": "-123.4049", "population": "3053"}, {"city": "Kenmore", "state_id": "WA", "lat": "47.7531", "lng": "-122.2460", "population": "22357"}, {"city": "Ellensburg", "state_id": "WA", "lat": "47.0010", "lng": "-120.5491", "population": "22847.0"}, {"city": "DuPont", "state_id": "WA", "lat": "47.1079", "lng": "-122.6496", "population": "9497"}, {"city": "Long Beach", "state_id": "WA", "lat": "46.3555", "lng": "-124.0557", "population": "1389"}, {"city": "Granite Falls", "state_id": "WA", "lat": "48.0874", "lng": "-121.9705", "population": "6421.0"}, {"city": "Tonasket", "state_id": "WA", "lat": "48.7087", "lng": "-119.4431", "population": "1013"}, {"city": "Milton", "state_id": "WA", "lat": "47.2522", "lng": "-122.3153", "population": "7970"}, {"city": "Lamont", "state_id": "WA", "lat": "47.2003", "lng": "-117.9050", "population": "73"}, {"city": "Stanwood", "state_id": "WA", "lat": "48.2450", "lng": "-122.3427", "population": "7073.0"}, {"city": "Benton City", "state_id": "WA", "lat": "46.2624", "lng": "-119.4814", "population": "4464.0"}, {"city": "Elmer City", "state_id": "WA", "lat": "48.0000", "lng": "-118.9528", "population": "239"}, {"city": "East Wenatchee", "state_id": "WA", "lat": "47.4172", "lng": "-120.2809", "population": "13968"}, {"city": "Spokane", "state_id": "WA", "lat": "47.6671", "lng": "-117.4330", "population": "400936.0"}, {"city": "Leavenworth", "state_id": "WA", "lat": "47.5943", "lng": "-120.6633", "population": "3330.0"}, {"city": "Chelan", "state_id": "WA", "lat": "47.8414", "lng": "-120.0260", "population": "6023.0"}, {"city": "Wilson Creek", "state_id": "WA", "lat": "47.4229", "lng": "-119.1176", "population": "210"}, {"city": "Latah", "state_id": "WA", "lat": "47.2820", "lng": "-117.1554", "population": "187"}, {"city": "Camas", "state_id": "WA", "lat": "45.6006", "lng": "-122.4301", "population": "22449"}, {"city": "Blaine", "state_id": "WA", "lat": "48.9839", "lng": "-122.7406", "population": "5164"}, {"city": "Oroville", "state_id": "WA", "lat": "48.9421", "lng": "-119.4293", "population": "1677"}, {"city": "Union Gap", "state_id": "WA", "lat": "46.5569", "lng": "-120.4937", "population": "6110"}, {"city": "Pasco", "state_id": "WA", "lat": "46.2499", "lng": "-119.1271", "population": "70579"}, {"city": "Pe Ell", "state_id": "WA", "lat": "46.5712", "lng": "-123.2981", "population": "643"}, {"city": "Fairfield", "state_id": "WA", "lat": "47.3848", "lng": "-117.1748", "population": "605"}, {"city": "Cashmere", "state_id": "WA", "lat": "47.5174", "lng": "-120.4669", "population": "4878.0"}, {"city": "Issaquah", "state_id": "WA", "lat": "47.5414", "lng": "-122.0436", "population": "37322"}, {"city": "Toppenish", "state_id": "WA", "lat": "46.3807", "lng": "-120.3125", "population": "14550.0"}, {"city": "Darrington", "state_id": "WA", "lat": "48.2542", "lng": "-121.6029", "population": "1385"}, {"city": "Dayton", "state_id": "WA", "lat": "46.3171", "lng": "-117.9768", "population": "2576.0"}, {"city": "Orting", "state_id": "WA", "lat": "47.0967", "lng": "-122.2113", "population": "7693"}, {"city": "Fircrest", "state_id": "WA", "lat": "47.2308", "lng": "-122.5157", "population": "6780"}, {"city": "Conconully", "state_id": "WA", "lat": "48.5575", "lng": "-119.7513", "population": "213"}, {"city": "Entiat", "state_id": "WA", "lat": "47.6781", "lng": "-120.2171", "population": "1208"}, {"city": "Westport", "state_id": "WA", "lat": "46.8919", "lng": "-124.1120", "population": "2035"}, {"city": "Twisp", "state_id": "WA", "lat": "48.3615", "lng": "-120.1165", "population": "952"}, {"city": "Ritzville", "state_id": "WA", "lat": "47.1259", "lng": "-118.3821", "population": "1626"}, {"city": "Vancouver", "state_id": "WA", "lat": "45.6352", "lng": "-122.5972", "population": "174826"}, {"city": "Battle Ground", "state_id": "WA", "lat": "45.7763", "lng": "-122.5415", "population": "20110"}, {"city": "College Place", "state_id": "WA", "lat": "46.0430", "lng": "-118.3869", "population": "9142"}, {"city": "Garfield", "state_id": "WA", "lat": "47.0099", "lng": "-117.1395", "population": "611"}, {"city": "Mount Vernon", "state_id": "WA", "lat": "48.4203", "lng": "-122.3114", "population": "68613.0"}, {"city": "Ferndale", "state_id": "WA", "lat": "48.8525", "lng": "-122.5893", "population": "13403"}, {"city": "White Salmon", "state_id": "WA", "lat": "45.7284", "lng": "-121.4853", "population": "2473"}, {"city": "Aberdeen", "state_id": "WA", "lat": "46.9768", "lng": "-123.8083", "population": "28863.0"}, {"city": "Winlock", "state_id": "WA", "lat": "46.4907", "lng": "-122.9342", "population": "1337"}, {"city": "Goldendale", "state_id": "WA", "lat": "45.8214", "lng": "-120.8191", "population": "3369.0"}, {"city": "Everett", "state_id": "WA", "lat": "47.9524", "lng": "-122.1672", "population": "109043"}, {"city": "Burien", "state_id": "WA", "lat": "47.4761", "lng": "-122.3393", "population": "50997"}, {"city": "Manassas Park", "state_id": "VA", "lat": "38.7717", "lng": "-77.4448", "population": "15915"}, {"city": "Columbia", "state_id": "VA", "lat": "37.7533", "lng": "-78.1638", "population": "80"}, {"city": "Fairfax", "state_id": "VA", "lat": "38.8531", "lng": "-77.2998", "population": "24164"}, {"city": "Scottsburg", "state_id": "VA", "lat": "36.7588", "lng": "-78.7914", "population": "131"}, {"city": "Big Stone Gap", "state_id": "VA", "lat": "36.8615", "lng": "-82.7774", "population": "7885.0"}, {"city": "Waynesboro", "state_id": "VA", "lat": "38.0673", "lng": "-78.9012", "population": "21887"}, {"city": "Lexington", "state_id": "VA", "lat": "37.7825", "lng": "-79.4440", "population": "8765.0"}, {"city": "Clinchco", "state_id": "VA", "lat": "37.1598", "lng": "-82.3564", "population": "312"}, {"city": "Ivor", "state_id": "VA", "lat": "36.9052", "lng": "-76.8978", "population": "327"}, {"city": "Montross", "state_id": "VA", "lat": "38.0941", "lng": "-76.8229", "population": "389"}, {"city": "Jonesville", "state_id": "VA", "lat": "36.6871", "lng": "-83.1152", "population": "956"}, {"city": "Duffield", "state_id": "VA", "lat": "36.7196", "lng": "-82.7962", "population": "85"}, {"city": "McKenney", "state_id": "VA", "lat": "36.9853", "lng": "-77.7219", "population": "482"}, {"city": "Goshen", "state_id": "VA", "lat": "37.9906", "lng": "-79.5071", "population": "354"}, {"city": "Onley", "state_id": "VA", "lat": "37.6917", "lng": "-75.7182", "population": "513"}, {"city": "Exmore", "state_id": "VA", "lat": "37.5295", "lng": "-75.8283", "population": "1442"}, {"city": "Kenbridge", "state_id": "VA", "lat": "36.9608", "lng": "-78.1283", "population": "1221"}, {"city": "Winchester", "state_id": "VA", "lat": "39.1734", "lng": "-78.1745", "population": "72928.0"}, {"city": "Lebanon", "state_id": "VA", "lat": "36.8992", "lng": "-82.0783", "population": "3237.0"}, {"city": "Orange", "state_id": "VA", "lat": "38.2484", "lng": "-78.1125", "population": "5179.0"}, {"city": "Boydton", "state_id": "VA", "lat": "36.6660", "lng": "-78.3908", "population": "416"}, {"city": "Kilmarnock", "state_id": "VA", "lat": "37.7118", "lng": "-76.3834", "population": "1438"}, {"city": "Hamilton", "state_id": "VA", "lat": "39.1350", "lng": "-77.6641", "population": "625"}, {"city": "Mineral", "state_id": "VA", "lat": "38.0068", "lng": "-77.9061", "population": "492"}, {"city": "Cleveland", "state_id": "VA", "lat": "36.9434", "lng": "-82.1527", "population": "184"}, {"city": "Wachapreague", "state_id": "VA", "lat": "37.6062", "lng": "-75.6897", "population": "230"}, {"city": "Jarratt", "state_id": "VA", "lat": "36.8160", "lng": "-77.4689", "population": "614"}, {"city": "Strasburg", "state_id": "VA", "lat": "38.9944", "lng": "-78.3541", "population": "7218.0"}, {"city": "Radford", "state_id": "VA", "lat": "37.1229", "lng": "-80.5583", "population": "17483"}, {"city": "Richmond", "state_id": "VA", "lat": "37.5294", "lng": "-77.4755", "population": "1041877.0"}, {"city": "Alberta", "state_id": "VA", "lat": "36.8553", "lng": "-77.8937", "population": "283"}, {"city": "Luray", "state_id": "VA", "lat": "38.6653", "lng": "-78.4545", "population": "4692.0"}, {"city": "Middleburg", "state_id": "VA", "lat": "38.9716", "lng": "-77.7427", "population": "828"}, {"city": "Drakes Branch", "state_id": "VA", "lat": "36.9933", "lng": "-78.6010", "population": "511"}, {"city": "Chilhowie", "state_id": "VA", "lat": "36.8010", "lng": "-81.6835", "population": "1721"}, {"city": "Glen Lyn", "state_id": "VA", "lat": "37.3730", "lng": "-80.8576", "population": "118"}, {"city": "Ridgeway", "state_id": "VA", "lat": "36.5781", "lng": "-79.8583", "population": "697"}, {"city": "Boykins", "state_id": "VA", "lat": "36.5778", "lng": "-77.1989", "population": "542"}, {"city": "Monterey", "state_id": "VA", "lat": "38.4116", "lng": "-79.5809", "population": "136"}, {"city": "Dungannon", "state_id": "VA", "lat": "36.8284", "lng": "-82.4683", "population": "310"}, {"city": "Bowling Green", "state_id": "VA", "lat": "38.0533", "lng": "-77.3473", "population": "1167"}, {"city": "Virginia Beach", "state_id": "VA", "lat": "36.7335", "lng": "-76.0435", "population": "1487505.0"}, {"city": "Toms Brook", "state_id": "VA", "lat": "38.9469", "lng": "-78.4397", "population": "262"}, {"city": "Gordonsville", "state_id": "VA", "lat": "38.1362", "lng": "-78.1877", "population": "1583"}, {"city": "Occoquan", "state_id": "VA", "lat": "38.6823", "lng": "-77.2604", "population": "1061"}, {"city": "Craigsville", "state_id": "VA", "lat": "38.0842", "lng": "-79.3842", "population": "935"}, {"city": "Herndon", "state_id": "VA", "lat": "38.9699", "lng": "-77.3867", "population": "24393"}, {"city": "Troutville", "state_id": "VA", "lat": "37.4167", "lng": "-79.8779", "population": "431"}, {"city": "Glasgow", "state_id": "VA", "lat": "37.6346", "lng": "-79.4514", "population": "1116"}, {"city": "Timberville", "state_id": "VA", "lat": "38.6341", "lng": "-78.7729", "population": "2640"}, {"city": "Mount Crawford", "state_id": "VA", "lat": "38.3601", "lng": "-78.9413", "population": "452"}, {"city": "Chesapeake", "state_id": "VA", "lat": "36.6778", "lng": "-76.3024", "population": "237940"}, {"city": "Tappahannock", "state_id": "VA", "lat": "37.9185", "lng": "-76.8665", "population": "2545.0"}, {"city": "Urbanna", "state_id": "VA", "lat": "37.6395", "lng": "-76.5747", "population": "470"}, {"city": "Haysi", "state_id": "VA", "lat": "37.2150", "lng": "-82.2931", "population": "474"}, {"city": "Virgilina", "state_id": "VA", "lat": "36.5463", "lng": "-78.7755", "population": "142"}, {"city": "Round Hill", "state_id": "VA", "lat": "39.1319", "lng": "-77.7681", "population": "659"}, {"city": "Coeburn", "state_id": "VA", "lat": "36.9451", "lng": "-82.4690", "population": "2951.0"}, {"city": "Purcellville", "state_id": "VA", "lat": "39.1378", "lng": "-77.7109", "population": "14645.0"}, {"city": "Blackstone", "state_id": "VA", "lat": "37.0821", "lng": "-78.0029", "population": "3081.0"}, {"city": "Appalachia", "state_id": "VA", "lat": "36.9096", "lng": "-82.7881", "population": "1654"}, {"city": "Covington", "state_id": "VA", "lat": "37.7786", "lng": "-79.9868", "population": "7804.0"}, {"city": "Charlottesville", "state_id": "VA", "lat": "38.0374", "lng": "-78.4856", "population": "99664.0"}, {"city": "Rural Retreat", "state_id": "VA", "lat": "36.9010", "lng": "-81.2764", "population": "1480"}, {"city": "Smithfield", "state_id": "VA", "lat": "36.9753", "lng": "-76.6162", "population": "10652.0"}, {"city": "Waverly", "state_id": "VA", "lat": "37.0340", "lng": "-77.0956", "population": "2050"}, {"city": "Burkeville", "state_id": "VA", "lat": "37.1879", "lng": "-78.2012", "population": "406"}, {"city": "Tazewell", "state_id": "VA", "lat": "37.1270", "lng": "-81.5130", "population": "4670.0"}, {"city": "Lovettsville", "state_id": "VA", "lat": "39.2739", "lng": "-77.6392", "population": "1985"}, {"city": "Boones Mill", "state_id": "VA", "lat": "37.1156", "lng": "-79.9514", "population": "232"}, {"city": "Norfolk", "state_id": "VA", "lat": "36.8945", "lng": "-76.2590", "population": "245115"}, {"city": "Belle Haven", "state_id": "VA", "lat": "37.5556", "lng": "-75.8259", "population": "528"}, {"city": "Middletown", "state_id": "VA", "lat": "39.0288", "lng": "-78.2781", "population": "1334"}, {"city": "Dumfries", "state_id": "VA", "lat": "38.5670", "lng": "-77.3234", "population": "5186"}, {"city": "Stuart", "state_id": "VA", "lat": "36.6411", "lng": "-80.2689", "population": "1376"}, {"city": "Berryville", "state_id": "VA", "lat": "39.1508", "lng": "-77.9823", "population": "4399.0"}, {"city": "Stanley", "state_id": "VA", "lat": "38.5768", "lng": "-78.5028", "population": "1648"}, {"city": "Buchanan", "state_id": "VA", "lat": "37.5212", "lng": "-79.6894", "population": "1173"}, {"city": "Gretna", "state_id": "VA", "lat": "36.9492", "lng": "-79.3646", "population": "1237"}, {"city": "Elkton", "state_id": "VA", "lat": "38.4107", "lng": "-78.6159", "population": "3822.0"}, {"city": "Damascus", "state_id": "VA", "lat": "36.6326", "lng": "-81.7889", "population": "797"}, {"city": "Petersburg", "state_id": "VA", "lat": "37.2042", "lng": "-77.3914", "population": "31882"}, {"city": "Claremont", "state_id": "VA", "lat": "37.2273", "lng": "-76.9665", "population": "346"}, {"city": "Hurt", "state_id": "VA", "lat": "37.0954", "lng": "-79.3029", "population": "1265"}, {"city": "Hallwood", "state_id": "VA", "lat": "37.8774", "lng": "-75.5895", "population": "204"}, {"city": "Chatham", "state_id": "VA", "lat": "36.8185", "lng": "-79.3967", "population": "1473"}, {"city": "Pearisburg", "state_id": "VA", "lat": "37.3289", "lng": "-80.7274", "population": "2794.0"}, {"city": "Windsor", "state_id": "VA", "lat": "36.8095", "lng": "-76.7405", "population": "2683"}, {"city": "Parksley", "state_id": "VA", "lat": "37.7864", "lng": "-75.6539", "population": "841"}, {"city": "Chincoteague", "state_id": "VA", "lat": "37.9594", "lng": "-75.3493", "population": "2919"}, {"city": "Shenandoah", "state_id": "VA", "lat": "38.4873", "lng": "-78.6170", "population": "2334"}, {"city": "Altavista", "state_id": "VA", "lat": "37.1229", "lng": "-79.2858", "population": "4686.0"}, {"city": "Clifton Forge", "state_id": "VA", "lat": "37.8232", "lng": "-79.8250", "population": "5080.0"}, {"city": "Fries", "state_id": "VA", "lat": "36.7139", "lng": "-80.9750", "population": "467"}, {"city": "La Crosse", "state_id": "VA", "lat": "36.7014", "lng": "-78.0939", "population": "584"}, {"city": "Glade Spring", "state_id": "VA", "lat": "36.7899", "lng": "-81.7725", "population": "1448"}, {"city": "Falls Church", "state_id": "VA", "lat": "38.8846", "lng": "-77.1751", "population": "14014"}, {"city": "Pound", "state_id": "VA", "lat": "37.1261", "lng": "-82.6070", "population": "954"}, {"city": "Rocky Mount", "state_id": "VA", "lat": "37.0045", "lng": "-79.8855", "population": "6047.0"}, {"city": "Grottoes", "state_id": "VA", "lat": "38.2693", "lng": "-78.8251", "population": "4274.0"}, {"city": "Galax", "state_id": "VA", "lat": "36.6660", "lng": "-80.9176", "population": "6652.0"}, {"city": "Farmville", "state_id": "VA", "lat": "37.2968", "lng": "-78.3993", "population": "8916.0"}, {"city": "Saxis", "state_id": "VA", "lat": "37.9257", "lng": "-75.7225", "population": "239"}, {"city": "Brodnax", "state_id": "VA", "lat": "36.7033", "lng": "-78.0318", "population": "279"}, {"city": "Stanardsville", "state_id": "VA", "lat": "38.2991", "lng": "-78.4367", "population": "384"}, {"city": "Martinsville", "state_id": "VA", "lat": "36.6827", "lng": "-79.8636", "population": "34132.0"}, {"city": "Danville", "state_id": "VA", "lat": "36.5831", "lng": "-79.4088", "population": "48015.0"}, {"city": "Quantico", "state_id": "VA", "lat": "38.5225", "lng": "-77.2901", "population": "540"}, {"city": "Dendron", "state_id": "VA", "lat": "37.0364", "lng": "-76.9240", "population": "249"}, {"city": "Wise", "state_id": "VA", "lat": "36.9767", "lng": "-82.5808", "population": "3083"}, {"city": "Manassas", "state_id": "VA", "lat": "38.7480", "lng": "-77.4840", "population": "41483"}, {"city": "Colonial Beach", "state_id": "VA", "lat": "38.2565", "lng": "-76.9784", "population": "3723.0"}, {"city": "Suffolk", "state_id": "VA", "lat": "36.6953", "lng": "-76.6398", "population": "89273"}, {"city": "Chase City", "state_id": "VA", "lat": "36.7998", "lng": "-78.4610", "population": "2584.0"}, {"city": "Saint Charles", "state_id": "VA", "lat": "36.8052", "lng": "-83.0575", "population": "117"}, {"city": "Clinchport", "state_id": "VA", "lat": "36.6780", "lng": "-82.7450", "population": "66"}, {"city": "Clarksville", "state_id": "VA", "lat": "36.6175", "lng": "-78.5640", "population": "1186"}, {"city": "Independence", "state_id": "VA", "lat": "36.6254", "lng": "-81.1511", "population": "923"}, {"city": "Harrisonburg", "state_id": "VA", "lat": "38.4362", "lng": "-78.8735", "population": "72470.0"}, {"city": "Melfa", "state_id": "VA", "lat": "37.6491", "lng": "-75.7409", "population": "398"}, {"city": "Clintwood", "state_id": "VA", "lat": "37.1506", "lng": "-82.4571", "population": "1302"}, {"city": "White Stone", "state_id": "VA", "lat": "37.6440", "lng": "-76.3897", "population": "342"}, {"city": "Pembroke", "state_id": "VA", "lat": "37.3222", "lng": "-80.6361", "population": "1091"}, {"city": "Dublin", "state_id": "VA", "lat": "37.0989", "lng": "-80.6831", "population": "2683"}, {"city": "Wakefield", "state_id": "VA", "lat": "36.9686", "lng": "-76.9875", "population": "872"}, {"city": "Fredericksburg", "state_id": "VA", "lat": "38.2992", "lng": "-77.4871", "population": "164610.0"}, {"city": "Warrenton", "state_id": "VA", "lat": "38.7177", "lng": "-77.7973", "population": "9861"}, {"city": "Marion", "state_id": "VA", "lat": "36.8389", "lng": "-81.5135", "population": "7808.0"}, {"city": "Broadway", "state_id": "VA", "lat": "38.6083", "lng": "-78.8016", "population": "6513.0"}, {"city": "Bridgewater", "state_id": "VA", "lat": "38.3863", "lng": "-78.9674", "population": "6048"}, {"city": "Weber City", "state_id": "VA", "lat": "36.6237", "lng": "-82.5628", "population": "1246"}, {"city": "Culpeper", "state_id": "VA", "lat": "38.4705", "lng": "-78.0002", "population": "19544.0"}, {"city": "Fincastle", "state_id": "VA", "lat": "37.4993", "lng": "-79.8756", "population": "339"}, {"city": "Vinton", "state_id": "VA", "lat": "37.2747", "lng": "-79.8886", "population": "8185"}, {"city": "Pamplin", "state_id": "VA", "lat": "37.2642", "lng": "-78.6820", "population": "219"}, {"city": "Gate City", "state_id": "VA", "lat": "36.6402", "lng": "-82.5783", "population": "1930"}, {"city": "Bloxom", "state_id": "VA", "lat": "37.8291", "lng": "-75.6216", "population": "378"}, {"city": "Blacksburg", "state_id": "VA", "lat": "37.2300", "lng": "-80.4277", "population": "93560.0"}, {"city": "Portsmouth", "state_id": "VA", "lat": "36.8468", "lng": "-76.3540", "population": "95252"}, {"city": "Newport News", "state_id": "VA", "lat": "37.1052", "lng": "-76.5185", "population": "181825"}, {"city": "Irvington", "state_id": "VA", "lat": "37.6621", "lng": "-76.4205", "population": "415"}, {"city": "Cape Charles", "state_id": "VA", "lat": "37.2570", "lng": "-76.0093", "population": "1039"}, {"city": "South Hill", "state_id": "VA", "lat": "36.7254", "lng": "-78.1287", "population": "4647.0"}, {"city": "Dillwyn", "state_id": "VA", "lat": "37.5411", "lng": "-78.4613", "population": "445"}, {"city": "Haymarket", "state_id": "VA", "lat": "38.8123", "lng": "-77.6365", "population": "1970"}, {"city": "Brookneal", "state_id": "VA", "lat": "37.0532", "lng": "-78.9486", "population": "1116"}, {"city": "Bluefield", "state_id": "VA", "lat": "37.2353", "lng": "-81.2746", "population": "4968"}, {"city": "Boyce", "state_id": "VA", "lat": "39.0932", "lng": "-78.0602", "population": "615"}, {"city": "Mount Jackson", "state_id": "VA", "lat": "38.7423", "lng": "-78.6445", "population": "2041"}, {"city": "Honaker", "state_id": "VA", "lat": "37.0156", "lng": "-81.9686", "population": "1365"}, {"city": "Newsoms", "state_id": "VA", "lat": "36.6262", "lng": "-77.1248", "population": "310"}, {"city": "Eastville", "state_id": "VA", "lat": "37.3510", "lng": "-75.9404", "population": "168"}, {"city": "Nickelsville", "state_id": "VA", "lat": "36.7517", "lng": "-82.4160", "population": "366"}, {"city": "Salem", "state_id": "VA", "lat": "37.2864", "lng": "-80.0554", "population": "25549"}, {"city": "Leesburg", "state_id": "VA", "lat": "39.1057", "lng": "-77.5543", "population": "52607"}, {"city": "Cheriton", "state_id": "VA", "lat": "37.2919", "lng": "-75.9687", "population": "472"}, {"city": "Hillsville", "state_id": "VA", "lat": "36.7612", "lng": "-80.7371", "population": "2655"}, {"city": "Pulaski", "state_id": "VA", "lat": "37.0531", "lng": "-80.7624", "population": "15625.0"}, {"city": "Stony Creek", "state_id": "VA", "lat": "36.9480", "lng": "-77.4001", "population": "188"}, {"city": "Staunton", "state_id": "VA", "lat": "38.1593", "lng": "-79.0608", "population": "58077.0"}, {"city": "New Market", "state_id": "VA", "lat": "38.6461", "lng": "-78.6708", "population": "2207"}, {"city": "Edinburg", "state_id": "VA", "lat": "38.8236", "lng": "-78.5633", "population": "1068"}, {"city": "Stephens City", "state_id": "VA", "lat": "39.0904", "lng": "-78.2229", "population": "1967"}, {"city": "Wytheville", "state_id": "VA", "lat": "36.9530", "lng": "-81.0881", "population": "7114.0"}, {"city": "Charlotte Court House", "state_id": "VA", "lat": "37.0564", "lng": "-78.6378", "population": "527"}, {"city": "Courtland", "state_id": "VA", "lat": "36.7123", "lng": "-77.0620", "population": "1247"}, {"city": "Bristol", "state_id": "VA", "lat": "36.6180", "lng": "-82.1607", "population": "16960"}, {"city": "Ashland", "state_id": "VA", "lat": "37.7597", "lng": "-77.4715", "population": "7649"}, {"city": "Hampton", "state_id": "VA", "lat": "37.0551", "lng": "-76.3629", "population": "135410"}, {"city": "Nassawadox", "state_id": "VA", "lat": "37.4763", "lng": "-75.8591", "population": "494"}, {"city": "Halifax", "state_id": "VA", "lat": "36.7612", "lng": "-78.9279", "population": "1246"}, {"city": "Roanoke", "state_id": "VA", "lat": "37.2784", "lng": "-79.9581", "population": "215793.0"}, {"city": "Crewe", "state_id": "VA", "lat": "37.1812", "lng": "-78.1307", "population": "4118.0"}, {"city": "Williamsburg", "state_id": "VA", "lat": "37.2691", "lng": "-76.7075", "population": "81840.0"}, {"city": "The Plains", "state_id": "VA", "lat": "38.8621", "lng": "-77.7745", "population": "228"}, {"city": "Capron", "state_id": "VA", "lat": "36.7093", "lng": "-77.2013", "population": "156"}, {"city": "Narrows", "state_id": "VA", "lat": "37.3317", "lng": "-80.8084", "population": "4108.0"}, {"city": "Victoria", "state_id": "VA", "lat": "36.9947", "lng": "-78.2242", "population": "1671"}, {"city": "Front Royal", "state_id": "VA", "lat": "38.9260", "lng": "-78.1837", "population": "19557.0"}, {"city": "Alexandria", "state_id": "VA", "lat": "38.8184", "lng": "-77.0861", "population": "155810"}, {"city": "Scottsville", "state_id": "VA", "lat": "37.8064", "lng": "-78.4920", "population": "607"}, {"city": "Phenix", "state_id": "VA", "lat": "37.0811", "lng": "-78.7485", "population": "219"}, {"city": "Norton", "state_id": "VA", "lat": "36.9317", "lng": "-82.6260", "population": "10259.0"}, {"city": "Vienna", "state_id": "VA", "lat": "38.8996", "lng": "-77.2597", "population": "16468"}, {"city": "Pocahontas", "state_id": "VA", "lat": "37.3069", "lng": "-81.3433", "population": "376"}, {"city": "Lynchburg", "state_id": "VA", "lat": "37.4004", "lng": "-79.1911", "population": "123795.0"}, {"city": "Trout Dale", "state_id": "VA", "lat": "36.7022", "lng": "-81.4413", "population": "170"}, {"city": "Washington", "state_id": "VA", "lat": "38.7121", "lng": "-78.1599", "population": "126"}, {"city": "Iron Gate", "state_id": "VA", "lat": "37.7986", "lng": "-79.7904", "population": "377"}, {"city": "Pennington Gap", "state_id": "VA", "lat": "36.7595", "lng": "-83.0294", "population": "1774"}, {"city": "West Point", "state_id": "VA", "lat": "37.5519", "lng": "-76.8017", "population": "2681.0"}, {"city": "Madison", "state_id": "VA", "lat": "38.3790", "lng": "-78.2586", "population": "218"}, {"city": "Rich Creek", "state_id": "VA", "lat": "37.3833", "lng": "-80.8207", "population": "754"}, {"city": "Amherst", "state_id": "VA", "lat": "37.5815", "lng": "-79.0508", "population": "2205"}, {"city": "Port Royal", "state_id": "VA", "lat": "38.1697", "lng": "-77.1912", "population": "197"}, {"city": "Emporia", "state_id": "VA", "lat": "36.6953", "lng": "-77.5356", "population": "6393.0"}, {"city": "Woodstock", "state_id": "VA", "lat": "38.8753", "lng": "-78.5158", "population": "7225.0"}, {"city": "Appomattox", "state_id": "VA", "lat": "37.3590", "lng": "-78.8265", "population": "1769"}, {"city": "Richlands", "state_id": "VA", "lat": "37.0877", "lng": "-81.8082", "population": "8938.0"}, {"city": "Dayton", "state_id": "VA", "lat": "38.4173", "lng": "-78.9412", "population": "1609"}, {"city": "Poquoson", "state_id": "VA", "lat": "37.1318", "lng": "-76.3569", "population": "12017"}, {"city": "Floyd", "state_id": "VA", "lat": "36.9118", "lng": "-80.3184", "population": "442"}, {"city": "Painter", "state_id": "VA", "lat": "37.5852", "lng": "-75.7838", "population": "227"}, {"city": "New Castle", "state_id": "VA", "lat": "37.5013", "lng": "-80.1119", "population": "150"}, {"city": "Bedford", "state_id": "VA", "lat": "37.3359", "lng": "-79.5181", "population": "7259.0"}, {"city": "Abingdon", "state_id": "VA", "lat": "36.7089", "lng": "-81.9711", "population": "8083"}, {"city": "Franklin", "state_id": "VA", "lat": "36.6831", "lng": "-76.9386", "population": "8913.0"}, {"city": "Lawrenceville", "state_id": "VA", "lat": "36.7564", "lng": "-77.8539", "population": "2997.0"}, {"city": "Hopewell", "state_id": "VA", "lat": "37.2914", "lng": "-77.2985", "population": "22735"}, {"city": "Keysville", "state_id": "VA", "lat": "37.0390", "lng": "-78.4804", "population": "808"}, {"city": "Grundy", "state_id": "VA", "lat": "37.2754", "lng": "-82.0988", "population": "958"}, {"city": "Saltville", "state_id": "VA", "lat": "36.8751", "lng": "-81.7643", "population": "2009"}, {"city": "Louisa", "state_id": "VA", "lat": "38.0212", "lng": "-77.9984", "population": "1650"}, {"city": "Surry", "state_id": "VA", "lat": "37.1371", "lng": "-76.8333", "population": "225"}, {"city": "Remington", "state_id": "VA", "lat": "38.5346", "lng": "-77.8082", "population": "631"}, {"city": "Hillsboro", "state_id": "VA", "lat": "39.1997", "lng": "-77.7244", "population": "98"}, {"city": "Buena Vista", "state_id": "VA", "lat": "37.7316", "lng": "-79.3565", "population": "6341.0"}, {"city": "Tangier", "state_id": "VA", "lat": "37.8251", "lng": "-75.9910", "population": "722"}, {"city": "Saint Paul", "state_id": "VA", "lat": "36.9067", "lng": "-82.3158", "population": "907"}, {"city": "Cedar Bluff", "state_id": "VA", "lat": "37.0868", "lng": "-81.7632", "population": "1061"}, {"city": "Accomac", "state_id": "VA", "lat": "37.7195", "lng": "-75.6675", "population": "499"}, {"city": "Branchville", "state_id": "VA", "lat": "36.5698", "lng": "-77.2501", "population": "116"}, {"city": "South Boston", "state_id": "VA", "lat": "36.7131", "lng": "-78.9135", "population": "8109.0"}, {"city": "Clifton", "state_id": "VA", "lat": "38.7802", "lng": "-77.3866", "population": "292"}, {"city": "Christiansburg", "state_id": "VA", "lat": "37.1411", "lng": "-80.4028", "population": "22088"}, {"city": "Onancock", "state_id": "VA", "lat": "37.7101", "lng": "-75.7434", "population": "1266"}, {"city": "Keller", "state_id": "VA", "lat": "37.6213", "lng": "-75.7641", "population": "176"}, {"city": "Colonial Heights", "state_id": "VA", "lat": "37.2650", "lng": "-77.3969", "population": "17772"}, {"city": "Warsaw", "state_id": "VA", "lat": "37.9603", "lng": "-76.7610", "population": "1485"}, {"city": "Wyoming", "state_id": "DE", "lat": "39.1143", "lng": "-75.5632", "population": "1486"}, {"city": "Newark", "state_id": "DE", "lat": "39.6777", "lng": "-75.7573", "population": "33398"}, {"city": "Fenwick Island", "state_id": "DE", "lat": "38.4604", "lng": "-75.0542", "population": "426"}, {"city": "Blades", "state_id": "DE", "lat": "38.6353", "lng": "-75.6026", "population": "1380"}, {"city": "Milford", "state_id": "DE", "lat": "38.9095", "lng": "-75.4232", "population": "20683.0"}, {"city": "Bridgeville", "state_id": "DE", "lat": "38.7248", "lng": "-75.6027", "population": "3758.0"}, {"city": "Greenwood", "state_id": "DE", "lat": "38.8069", "lng": "-75.5907", "population": "1085"}, {"city": "Bethany Beach", "state_id": "DE", "lat": "38.5391", "lng": "-75.0660", "population": "1194"}, {"city": "Middletown", "state_id": "DE", "lat": "39.4451", "lng": "-75.7165", "population": "32540.0"}, {"city": "Cheswold", "state_id": "DE", "lat": "39.2224", "lng": "-75.5911", "population": "1425"}, {"city": "Newport", "state_id": "DE", "lat": "39.7136", "lng": "-75.6052", "population": "1050"}, {"city": "Harrington", "state_id": "DE", "lat": "38.9243", "lng": "-75.5705", "population": "4594.0"}, {"city": "Dewey Beach", "state_id": "DE", "lat": "38.6958", "lng": "-75.0749", "population": "379"}, {"city": "Camden", "state_id": "DE", "lat": "39.0990", "lng": "-75.5570", "population": "3489"}, {"city": "Milton", "state_id": "DE", "lat": "38.7750", "lng": "-75.3104", "population": "2856.0"}, {"city": "Dagsboro", "state_id": "DE", "lat": "38.5466", "lng": "-75.2466", "population": "878"}, {"city": "Slaughter Beach", "state_id": "DE", "lat": "38.9143", "lng": "-75.3085", "population": "233"}, {"city": "Frankford", "state_id": "DE", "lat": "38.5215", "lng": "-75.2342", "population": "951"}, {"city": "Millsboro", "state_id": "DE", "lat": "38.5865", "lng": "-75.3018", "population": "10403.0"}, {"city": "Townsend", "state_id": "DE", "lat": "39.3968", "lng": "-75.6945", "population": "2313"}, {"city": "Woodside", "state_id": "DE", "lat": "39.0711", "lng": "-75.5667", "population": "196"}, {"city": "Kenton", "state_id": "DE", "lat": "39.2272", "lng": "-75.6645", "population": "265"}, {"city": "Hartly", "state_id": "DE", "lat": "39.1687", "lng": "-75.7125", "population": "71"}, {"city": "Seaford", "state_id": "DE", "lat": "38.6539", "lng": "-75.6118", "population": "7736"}, {"city": "Delmar", "state_id": "DE", "lat": "38.4651", "lng": "-75.5553", "population": "1765"}, {"city": "Leipsic", "state_id": "DE", "lat": "39.2430", "lng": "-75.5155", "population": "196"}, {"city": "Magnolia", "state_id": "DE", "lat": "39.0718", "lng": "-75.4757", "population": "235"}, {"city": "Bethel", "state_id": "DE", "lat": "38.5706", "lng": "-75.6194", "population": "192"}, {"city": "Lewes", "state_id": "DE", "lat": "38.7784", "lng": "-75.1455", "population": "27008.0"}, {"city": "Selbyville", "state_id": "DE", "lat": "38.4627", "lng": "-75.2085", "population": "2421"}, {"city": "Delaware City", "state_id": "DE", "lat": "39.5776", "lng": "-75.5985", "population": "1742"}, {"city": "Little Creek", "state_id": "DE", "lat": "39.1664", "lng": "-75.4480", "population": "234"}, {"city": "Laurel", "state_id": "DE", "lat": "38.5697", "lng": "-75.5687", "population": "4160"}, {"city": "Rehoboth Beach", "state_id": "DE", "lat": "38.7168", "lng": "-75.0843", "population": "1488"}, {"city": "Ardentown", "state_id": "DE", "lat": "39.8078", "lng": "-75.4804", "population": "273"}, {"city": "Farmington", "state_id": "DE", "lat": "38.8700", "lng": "-75.5793", "population": "118"}, {"city": "Felton", "state_id": "DE", "lat": "39.0125", "lng": "-75.5761", "population": "1408"}, {"city": "Ardencroft", "state_id": "DE", "lat": "39.8054", "lng": "-75.4860", "population": "237"}, {"city": "Viola", "state_id": "DE", "lat": "39.0430", "lng": "-75.5716", "population": "171"}, {"city": "Odessa", "state_id": "DE", "lat": "39.4562", "lng": "-75.6605", "population": "372"}, {"city": "Elsmere", "state_id": "DE", "lat": "39.7385", "lng": "-75.5946", "population": "6106"}, {"city": "Georgetown", "state_id": "DE", "lat": "38.6899", "lng": "-75.3872", "population": "10136.0"}, {"city": "Arden", "state_id": "DE", "lat": "39.8113", "lng": "-75.4886", "population": "450"}, {"city": "Clayton", "state_id": "DE", "lat": "39.2846", "lng": "-75.6363", "population": "3157"}, {"city": "Millville", "state_id": "DE", "lat": "38.5351", "lng": "-75.1291", "population": "602"}, {"city": "Frederica", "state_id": "DE", "lat": "39.0080", "lng": "-75.4660", "population": "828"}, {"city": "Wilmington", "state_id": "DE", "lat": "39.7349", "lng": "-75.5286", "population": "71442"}, {"city": "South Bethany", "state_id": "DE", "lat": "38.5161", "lng": "-75.0591", "population": "508"}, {"city": "Bellefonte", "state_id": "DE", "lat": "39.7669", "lng": "-75.4982", "population": "1178"}, {"city": "Henlopen Acres", "state_id": "DE", "lat": "38.7256", "lng": "-75.0849", "population": "138"}, {"city": "Ocean View", "state_id": "DE", "lat": "38.5357", "lng": "-75.0991", "population": "13612.0"}, {"city": "Dover", "state_id": "DE", "lat": "39.1600", "lng": "-75.5204", "population": "116114.0"}, {"city": "New Castle", "state_id": "DE", "lat": "39.6689", "lng": "-75.5684", "population": "5357"}, {"city": "Houston", "state_id": "DE", "lat": "38.9177", "lng": "-75.5041", "population": "393"}, {"city": "Ellendale", "state_id": "DE", "lat": "38.8103", "lng": "-75.4250", "population": "423"}, {"city": "Smyrna", "state_id": "DE", "lat": "39.2922", "lng": "-75.6079", "population": "11371"}, {"city": "Washington", "state_id": "DC", "lat": "38.9047", "lng": "-77.0163", "population": "5191844.0"}, {"city": "Ridgeway", "state_id": "WI", "lat": "42.9985", "lng": "-89.9932", "population": "635"}, {"city": "Colfax", "state_id": "WI", "lat": "44.9974", "lng": "-91.7262", "population": "1161"}, {"city": "Wyeville", "state_id": "WI", "lat": "44.0279", "lng": "-90.3861", "population": "147"}, {"city": "Friesland", "state_id": "WI", "lat": "43.5886", "lng": "-89.0669", "population": "354"}, {"city": "Hortonville", "state_id": "WI", "lat": "44.3365", "lng": "-88.6362", "population": "2734"}, {"city": "Merton", "state_id": "WI", "lat": "43.1423", "lng": "-88.3089", "population": "3592"}, {"city": "Kaukauna", "state_id": "WI", "lat": "44.2777", "lng": "-88.2645", "population": "15900"}, {"city": "Aniwa", "state_id": "WI", "lat": "45.0114", "lng": "-89.2088", "population": "245"}, {"city": "Winter", "state_id": "WI", "lat": "45.8221", "lng": "-91.0130", "population": "296"}, {"city": "Oconomowoc", "state_id": "WI", "lat": "43.0993", "lng": "-88.4952", "population": "16526"}, {"city": "Oakdale", "state_id": "WI", "lat": "43.9620", "lng": "-90.3789", "population": "296"}, {"city": "Verona", "state_id": "WI", "lat": "42.9879", "lng": "-89.5371", "population": "12969"}, {"city": "Wonewoc", "state_id": "WI", "lat": "43.6531", "lng": "-90.2239", "population": "794"}, {"city": "Fremont", "state_id": "WI", "lat": "44.2602", "lng": "-88.8715", "population": "662"}, {"city": "Platteville", "state_id": "WI", "lat": "42.7334", "lng": "-90.4716", "population": "12550.0"}, {"city": "Coloma", "state_id": "WI", "lat": "44.0385", "lng": "-89.5316", "population": "438"}, {"city": "Strum", "state_id": "WI", "lat": "44.5531", "lng": "-91.3867", "population": "1114"}, {"city": "Mazomanie", "state_id": "WI", "lat": "43.1730", "lng": "-89.7955", "population": "3039.0"}, {"city": "Radisson", "state_id": "WI", "lat": "45.7684", "lng": "-91.2178", "population": "241"}, {"city": "Viroqua", "state_id": "WI", "lat": "43.5578", "lng": "-90.8867", "population": "4127.0"}, {"city": "Waterloo", "state_id": "WI", "lat": "43.1835", "lng": "-88.9900", "population": "3058.0"}, {"city": "Hancock", "state_id": "WI", "lat": "44.1330", "lng": "-89.5202", "population": "402"}, {"city": "Montfort", "state_id": "WI", "lat": "42.9698", "lng": "-90.4332", "population": "698"}, {"city": "Poplar", "state_id": "WI", "lat": "46.5828", "lng": "-91.7836", "population": "598"}, {"city": "Kewaskum", "state_id": "WI", "lat": "43.5176", "lng": "-88.2306", "population": "4103"}, {"city": "Medford", "state_id": "WI", "lat": "45.1364", "lng": "-90.3437", "population": "4056.0"}, {"city": "Richland Center", "state_id": "WI", "lat": "43.3403", "lng": "-90.3839", "population": "4859.0"}, {"city": "Clyman", "state_id": "WI", "lat": "43.3116", "lng": "-88.7231", "population": "399"}, {"city": "Ironton", "state_id": "WI", "lat": "43.5453", "lng": "-90.1436", "population": "257"}, {"city": "Rice Lake", "state_id": "WI", "lat": "45.4862", "lng": "-91.7448", "population": "9468.0"}, {"city": "Weyerhaeuser", "state_id": "WI", "lat": "45.4251", "lng": "-91.4145", "population": "223"}, {"city": "Iola", "state_id": "WI", "lat": "44.5091", "lng": "-89.1248", "population": "1264"}, {"city": "New Holstein", "state_id": "WI", "lat": "43.9491", "lng": "-88.0942", "population": "3129"}, {"city": "Endeavor", "state_id": "WI", "lat": "43.7163", "lng": "-89.4695", "population": "461"}, {"city": "North Fond du Lac", "state_id": "WI", "lat": "43.8107", "lng": "-88.4861", "population": "5034"}, {"city": "Windsor", "state_id": "WI", "lat": "43.2165", "lng": "-89.3393", "population": "6785"}, {"city": "Wausaukee", "state_id": "WI", "lat": "45.3779", "lng": "-87.9551", "population": "562"}, {"city": "Bayside", "state_id": "WI", "lat": "43.1827", "lng": "-87.9016", "population": "4398"}, {"city": "Almena", "state_id": "WI", "lat": "45.4149", "lng": "-92.0382", "population": "656"}, {"city": "Howard", "state_id": "WI", "lat": "44.5703", "lng": "-88.0924", "population": "19410"}, {"city": "Durand", "state_id": "WI", "lat": "44.6272", "lng": "-91.9615", "population": "1846"}, {"city": "Burlington", "state_id": "WI", "lat": "42.6748", "lng": "-88.2724", "population": "23990.0"}, {"city": "Somerset", "state_id": "WI", "lat": "45.1273", "lng": "-92.6751", "population": "2684.0"}, {"city": "Chippewa Falls", "state_id": "WI", "lat": "44.9358", "lng": "-91.3903", "population": "14084"}, {"city": "Waupaca", "state_id": "WI", "lat": "44.3508", "lng": "-89.0719", "population": "7598.0"}, {"city": "Campbellsport", "state_id": "WI", "lat": "43.5976", "lng": "-88.2813", "population": "1978"}, {"city": "Boyd", "state_id": "WI", "lat": "44.9533", "lng": "-91.0398", "population": "537"}, {"city": "Bruce", "state_id": "WI", "lat": "45.4590", "lng": "-91.2734", "population": "724"}, {"city": "Kellnersville", "state_id": "WI", "lat": "44.2253", "lng": "-87.8020", "population": "320"}, {"city": "Port Edwards", "state_id": "WI", "lat": "44.3485", "lng": "-89.8541", "population": "1750"}, {"city": "Valders", "state_id": "WI", "lat": "44.0696", "lng": "-87.8858", "population": "934"}, {"city": "Rockland", "state_id": "WI", "lat": "43.9073", "lng": "-90.9161", "population": "631"}, {"city": "Chilton", "state_id": "WI", "lat": "44.0280", "lng": "-88.1636", "population": "3493.0"}, {"city": "Lake Geneva", "state_id": "WI", "lat": "42.5825", "lng": "-88.4283", "population": "14974.0"}, {"city": "Cuba City", "state_id": "WI", "lat": "42.6037", "lng": "-90.4318", "population": "2055"}, {"city": "Wrightstown", "state_id": "WI", "lat": "44.3260", "lng": "-88.1756", "population": "2992.0"}, {"city": "Manawa", "state_id": "WI", "lat": "44.4613", "lng": "-88.9204", "population": "1301"}, {"city": "Arena", "state_id": "WI", "lat": "43.1637", "lng": "-89.9101", "population": "820"}, {"city": "Buffalo City", "state_id": "WI", "lat": "44.2237", "lng": "-91.8654", "population": "969"}, {"city": "Genoa City", "state_id": "WI", "lat": "42.5065", "lng": "-88.3193", "population": "3022"}, {"city": "Silver Lake", "state_id": "WI", "lat": "42.5492", "lng": "-88.1670", "population": "2408"}, {"city": "Fitchburg", "state_id": "WI", "lat": "42.9859", "lng": "-89.4255", "population": "28875"}, {"city": "Rib Lake", "state_id": "WI", "lat": "45.3192", "lng": "-90.2030", "population": "891"}, {"city": "Spencer", "state_id": "WI", "lat": "44.7543", "lng": "-90.2984", "population": "1911"}, {"city": "Haugen", "state_id": "WI", "lat": "45.6078", "lng": "-91.7789", "population": "284"}, {"city": "Saukville", "state_id": "WI", "lat": "43.3847", "lng": "-87.9440", "population": "4470"}, {"city": "Merrill", "state_id": "WI", "lat": "45.1818", "lng": "-89.7005", "population": "9818.0"}, {"city": "Mineral Point", "state_id": "WI", "lat": "42.8624", "lng": "-90.1837", "population": "2491"}, {"city": "Monona", "state_id": "WI", "lat": "43.0540", "lng": "-89.3334", "population": "8179"}, {"city": "Almond", "state_id": "WI", "lat": "44.2607", "lng": "-89.4087", "population": "429"}, {"city": "Beaver Dam", "state_id": "WI", "lat": "43.4687", "lng": "-88.8312", "population": "18121.0"}, {"city": "Oconomowoc Lake", "state_id": "WI", "lat": "43.0973", "lng": "-88.4522", "population": "585"}, {"city": "Paddock Lake", "state_id": "WI", "lat": "42.5705", "lng": "-88.1047", "population": "3000"}, {"city": "Marquette", "state_id": "WI", "lat": "43.7462", "lng": "-89.1385", "population": "147"}, {"city": "Little Chute", "state_id": "WI", "lat": "44.2889", "lng": "-88.3184", "population": "11250"}, {"city": "Baldwin", "state_id": "WI", "lat": "44.9543", "lng": "-92.3708", "population": "5856.0"}, {"city": "Omro", "state_id": "WI", "lat": "44.0391", "lng": "-88.7378", "population": "3395.0"}, {"city": "Neshkoro", "state_id": "WI", "lat": "43.9652", "lng": "-89.2157", "population": "422"}, {"city": "Mount Pleasant", "state_id": "WI", "lat": "42.7129", "lng": "-87.8875", "population": "26360"}, {"city": "Eleva", "state_id": "WI", "lat": "44.5763", "lng": "-91.4701", "population": "670"}, {"city": "Black Earth", "state_id": "WI", "lat": "43.1344", "lng": "-89.7470", "population": "1415"}, {"city": "Shorewood", "state_id": "WI", "lat": "43.0913", "lng": "-87.8863", "population": "13368"}, {"city": "Columbus", "state_id": "WI", "lat": "43.3354", "lng": "-89.0299", "population": "6674.0"}, {"city": "Seymour", "state_id": "WI", "lat": "44.5141", "lng": "-88.3272", "population": "3492.0"}, {"city": "Biron", "state_id": "WI", "lat": "44.4283", "lng": "-89.7656", "population": "792"}, {"city": "Eastman", "state_id": "WI", "lat": "43.1622", "lng": "-91.0254", "population": "408"}, {"city": "Junction City", "state_id": "WI", "lat": "44.5934", "lng": "-89.7683", "population": "429"}, {"city": "Avoca", "state_id": "WI", "lat": "43.1901", "lng": "-90.3261", "population": "619"}, {"city": "Gillett", "state_id": "WI", "lat": "44.8897", "lng": "-88.3063", "population": "1336"}, {"city": "Rudolph", "state_id": "WI", "lat": "44.4971", "lng": "-89.8018", "population": "430"}, {"city": "Withee", "state_id": "WI", "lat": "44.9508", "lng": "-90.5988", "population": "476"}, {"city": "Adams", "state_id": "WI", "lat": "43.9554", "lng": "-89.8169", "population": "1890"}, {"city": "Gratiot", "state_id": "WI", "lat": "42.5801", "lng": "-90.0234", "population": "235"}, {"city": "Denmark", "state_id": "WI", "lat": "44.3489", "lng": "-87.8310", "population": "2210"}, {"city": "Beloit", "state_id": "WI", "lat": "42.5230", "lng": "-89.0184", "population": "63470.0"}, {"city": "Melvina", "state_id": "WI", "lat": "43.8024", "lng": "-90.7815", "population": "104"}, {"city": "Genoa", "state_id": "WI", "lat": "43.5734", "lng": "-91.2261", "population": "270"}, {"city": "Montreal", "state_id": "WI", "lat": "46.4314", "lng": "-90.2382", "population": "776"}, {"city": "Greenfield", "state_id": "WI", "lat": "42.9619", "lng": "-88.0050", "population": "36858"}, {"city": "Fredonia", "state_id": "WI", "lat": "43.4716", "lng": "-87.9489", "population": "2243"}, {"city": "Saint Cloud", "state_id": "WI", "lat": "43.8245", "lng": "-88.1687", "population": "458"}, {"city": "Greendale", "state_id": "WI", "lat": "42.9371", "lng": "-88.0019", "population": "14211"}, {"city": "Spooner", "state_id": "WI", "lat": "45.8270", "lng": "-91.8860", "population": "2588.0"}, {"city": "Brodhead", "state_id": "WI", "lat": "42.6167", "lng": "-89.3756", "population": "3488.0"}, {"city": "Turtle Lake", "state_id": "WI", "lat": "45.3934", "lng": "-92.1452", "population": "1024"}, {"city": "La Farge", "state_id": "WI", "lat": "43.5780", "lng": "-90.6380", "population": "771"}, {"city": "Sharon", "state_id": "WI", "lat": "42.5047", "lng": "-88.7391", "population": "1580"}, {"city": "Owen", "state_id": "WI", "lat": "44.9485", "lng": "-90.5623", "population": "931"}, {"city": "Forestville", "state_id": "WI", "lat": "44.6907", "lng": "-87.4787", "population": "409"}, {"city": "Suamico", "state_id": "WI", "lat": "44.6352", "lng": "-88.0664", "population": "12588"}, {"city": "Pewaukee", "state_id": "WI", "lat": "43.0853", "lng": "-88.2523", "population": "8176"}, {"city": "Park Falls", "state_id": "WI", "lat": "45.9350", "lng": "-90.4457", "population": "2292"}, {"city": "Plainfield", "state_id": "WI", "lat": "44.2178", "lng": "-89.4973", "population": "836"}, {"city": "Bay City", "state_id": "WI", "lat": "44.5871", "lng": "-92.4571", "population": "484"}, {"city": "Coleman", "state_id": "WI", "lat": "45.0695", "lng": "-88.0348", "population": "702"}, {"city": "Fond du Lac", "state_id": "WI", "lat": "43.7719", "lng": "-88.4396", "population": "54811.0"}, {"city": "Eagle", "state_id": "WI", "lat": "42.8791", "lng": "-88.4695", "population": "1998"}, {"city": "Hartland", "state_id": "WI", "lat": "43.1024", "lng": "-88.3398", "population": "9212"}, {"city": "Saint Nazianz", "state_id": "WI", "lat": "44.0067", "lng": "-87.9246", "population": "755"}, {"city": "Lake Nebagamon", "state_id": "WI", "lat": "46.5119", "lng": "-91.6995", "population": "1058"}, {"city": "Clayton", "state_id": "WI", "lat": "45.3260", "lng": "-92.1710", "population": "547"}, {"city": "Edgerton", "state_id": "WI", "lat": "42.8385", "lng": "-89.0698", "population": "7327.0"}, {"city": "Hartford", "state_id": "WI", "lat": "43.3215", "lng": "-88.3777", "population": "14605"}, {"city": "Cedar Grove", "state_id": "WI", "lat": "43.5680", "lng": "-87.8245", "population": "2117"}, {"city": "Hilbert", "state_id": "WI", "lat": "44.1419", "lng": "-88.1607", "population": "1079"}, {"city": "Elkhorn", "state_id": "WI", "lat": "42.6711", "lng": "-88.5376", "population": "12198.0"}, {"city": "Siren", "state_id": "WI", "lat": "45.7830", "lng": "-92.3821", "population": "778"}, {"city": "Rhinelander", "state_id": "WI", "lat": "45.6361", "lng": "-89.4255", "population": "8769.0"}, {"city": "Nelsonville", "state_id": "WI", "lat": "44.4937", "lng": "-89.3091", "population": "158"}, {"city": "Cazenovia", "state_id": "WI", "lat": "43.5237", "lng": "-90.1991", "population": "325"}, {"city": "Williams Bay", "state_id": "WI", "lat": "42.5788", "lng": "-88.5456", "population": "2594"}, {"city": "Baraboo", "state_id": "WI", "lat": "43.4696", "lng": "-89.7378", "population": "13902.0"}, {"city": "Wild Rose", "state_id": "WI", "lat": "44.1796", "lng": "-89.2428", "population": "703"}, {"city": "Bell Center", "state_id": "WI", "lat": "43.2916", "lng": "-90.8256", "population": "116"}, {"city": "Peshtigo", "state_id": "WI", "lat": "45.0556", "lng": "-87.7477", "population": "3348.0"}, {"city": "Plover", "state_id": "WI", "lat": "44.4614", "lng": "-89.5373", "population": "12552"}, {"city": "Chaseburg", "state_id": "WI", "lat": "43.6598", "lng": "-91.0970", "population": "304"}, {"city": "Janesville", "state_id": "WI", "lat": "42.6855", "lng": "-89.0137", "population": "70299.0"}, {"city": "Hustler", "state_id": "WI", "lat": "43.8771", "lng": "-90.2658", "population": "192"}, {"city": "Necedah", "state_id": "WI", "lat": "44.0232", "lng": "-90.0717", "population": "920"}, {"city": "Norwalk", "state_id": "WI", "lat": "43.8342", "lng": "-90.6269", "population": "634"}, {"city": "Arlington", "state_id": "WI", "lat": "43.3352", "lng": "-89.3724", "population": "808"}, {"city": "Twin Lakes", "state_id": "WI", "lat": "42.5192", "lng": "-88.2490", "population": "6081"}, {"city": "Marinette", "state_id": "WI", "lat": "45.0870", "lng": "-87.6305", "population": "18947.0"}, {"city": "Milltown", "state_id": "WI", "lat": "45.5264", "lng": "-92.5012", "population": "878"}, {"city": "New Lisbon", "state_id": "WI", "lat": "43.8780", "lng": "-90.1627", "population": "2499"}, {"city": "Phillips", "state_id": "WI", "lat": "45.6957", "lng": "-90.4016", "population": "1375"}, {"city": "Wilson", "state_id": "WI", "lat": "44.9582", "lng": "-92.1706", "population": "185"}, {"city": "Ontario", "state_id": "WI", "lat": "43.7222", "lng": "-90.5941", "population": "554"}, {"city": "Warrens", "state_id": "WI", "lat": "44.1287", "lng": "-90.5157", "population": "350"}, {"city": "Pleasant Prairie", "state_id": "WI", "lat": "42.5265", "lng": "-87.8895", "population": "20734"}, {"city": "Lodi", "state_id": "WI", "lat": "43.3153", "lng": "-89.5378", "population": "3023.0"}, {"city": "Muskego", "state_id": "WI", "lat": "42.8859", "lng": "-88.1291", "population": "24882"}, {"city": "Manitowoc", "state_id": "WI", "lat": "44.0990", "lng": "-87.6812", "population": "45261.0"}, {"city": "Suring", "state_id": "WI", "lat": "45.0008", "lng": "-88.3694", "population": "526"}, {"city": "Frederic", "state_id": "WI", "lat": "45.6547", "lng": "-92.4647", "population": "1097"}, {"city": "Kronenwetter", "state_id": "WI", "lat": "44.8163", "lng": "-89.5806", "population": "7619"}, {"city": "Nichols", "state_id": "WI", "lat": "44.5671", "lng": "-88.4678", "population": "269"}, {"city": "Centuria", "state_id": "WI", "lat": "45.4497", "lng": "-92.5578", "population": "922"}, {"city": "Lake Hallie", "state_id": "WI", "lat": "44.8921", "lng": "-91.4201", "population": "6650"}, {"city": "Wyocena", "state_id": "WI", "lat": "43.4930", "lng": "-89.3097", "population": "745"}, {"city": "Rosendale", "state_id": "WI", "lat": "43.8079", "lng": "-88.6731", "population": "1039"}, {"city": "Ladysmith", "state_id": "WI", "lat": "45.4607", "lng": "-91.0971", "population": "3216.0"}, {"city": "Birchwood", "state_id": "WI", "lat": "45.6577", "lng": "-91.5508", "population": "427"}, {"city": "Augusta", "state_id": "WI", "lat": "44.6784", "lng": "-91.1203", "population": "1520"}, {"city": "Oxford", "state_id": "WI", "lat": "43.7797", "lng": "-89.5624", "population": "591"}, {"city": "Kenosha", "state_id": "WI", "lat": "42.5861", "lng": "-87.8755", "population": "124580.0"}, {"city": "Webster", "state_id": "WI", "lat": "45.8800", "lng": "-92.3631", "population": "626"}, {"city": "Union Center", "state_id": "WI", "lat": "43.6827", "lng": "-90.2634", "population": "195"}, {"city": "Slinger", "state_id": "WI", "lat": "43.3318", "lng": "-88.2799", "population": "5287"}, {"city": "Pardeeville", "state_id": "WI", "lat": "43.5358", "lng": "-89.3011", "population": "2083"}, {"city": "Argyle", "state_id": "WI", "lat": "42.7013", "lng": "-89.8660", "population": "839"}, {"city": "Balsam Lake", "state_id": "WI", "lat": "45.4584", "lng": "-92.4529", "population": "980"}, {"city": "Granton", "state_id": "WI", "lat": "44.5885", "lng": "-90.4615", "population": "347"}, {"city": "Wauzeka", "state_id": "WI", "lat": "43.0851", "lng": "-90.8995", "population": "730"}, {"city": "Abbotsford", "state_id": "WI", "lat": "44.9437", "lng": "-90.3154", "population": "3877.0"}, {"city": "Hixton", "state_id": "WI", "lat": "44.3831", "lng": "-91.0153", "population": "423"}, {"city": "Stanley", "state_id": "WI", "lat": "44.9596", "lng": "-90.9430", "population": "3496.0"}, {"city": "Darien", "state_id": "WI", "lat": "42.6007", "lng": "-88.7129", "population": "1608"}, {"city": "Elroy", "state_id": "WI", "lat": "43.7422", "lng": "-90.2707", "population": "1366"}, {"city": "Wheeler", "state_id": "WI", "lat": "45.0439", "lng": "-91.9040", "population": "332"}, {"city": "Jefferson", "state_id": "WI", "lat": "43.0042", "lng": "-88.8084", "population": "8024"}, {"city": "Hales Corners", "state_id": "WI", "lat": "42.9410", "lng": "-88.0492", "population": "7674"}, {"city": "Elmwood Park", "state_id": "WI", "lat": "42.6919", "lng": "-87.8226", "population": "495"}, {"city": "Wittenberg", "state_id": "WI", "lat": "44.8273", "lng": "-89.1666", "population": "1019"}, {"city": "Dresser", "state_id": "WI", "lat": "45.3617", "lng": "-92.6344", "population": "859"}, {"city": "Theresa", "state_id": "WI", "lat": "43.5165", "lng": "-88.4540", "population": "1207"}, {"city": "Woodman", "state_id": "WI", "lat": "43.0925", "lng": "-90.7970", "population": "130"}, {"city": "Reedsville", "state_id": "WI", "lat": "44.1524", "lng": "-87.9517", "population": "1170"}, {"city": "Dorchester", "state_id": "WI", "lat": "45.0026", "lng": "-90.3309", "population": "867"}, {"city": "Sussex", "state_id": "WI", "lat": "43.1338", "lng": "-88.2233", "population": "10765"}, {"city": "Lac La Belle", "state_id": "WI", "lat": "43.1428", "lng": "-88.5302", "population": "295"}, {"city": "Wind Point", "state_id": "WI", "lat": "42.7813", "lng": "-87.7720", "population": "1709"}, {"city": "Union Grove", "state_id": "WI", "lat": "42.6870", "lng": "-88.0501", "population": "6980.0"}, {"city": "Mukwonago", "state_id": "WI", "lat": "42.8569", "lng": "-88.3273", "population": "21532.0"}, {"city": "Watertown", "state_id": "WI", "lat": "43.1893", "lng": "-88.7285", "population": "23304.0"}, {"city": "Ripon", "state_id": "WI", "lat": "43.8436", "lng": "-88.8386", "population": "7961.0"}, {"city": "Westfield", "state_id": "WI", "lat": "43.8851", "lng": "-89.4927", "population": "1230"}, {"city": "Green Lake", "state_id": "WI", "lat": "43.8433", "lng": "-88.9576", "population": "934"}, {"city": "Bloomer", "state_id": "WI", "lat": "45.1030", "lng": "-91.4913", "population": "3320.0"}, {"city": "New Glarus", "state_id": "WI", "lat": "42.8130", "lng": "-89.6337", "population": "2162"}, {"city": "Cambridge", "state_id": "WI", "lat": "43.0071", "lng": "-89.0214", "population": "2669.0"}, {"city": "Clinton", "state_id": "WI", "lat": "42.5574", "lng": "-88.8678", "population": "2126"}, {"city": "Egg Harbor", "state_id": "WI", "lat": "45.0528", "lng": "-87.2826", "population": "203"}, {"city": "Rewey", "state_id": "WI", "lat": "42.8417", "lng": "-90.3962", "population": "295"}, {"city": "Onalaska", "state_id": "WI", "lat": "43.8880", "lng": "-91.2075", "population": "18697"}, {"city": "North Bay", "state_id": "WI", "lat": "42.7644", "lng": "-87.7809", "population": "240"}, {"city": "Grantsburg", "state_id": "WI", "lat": "45.7813", "lng": "-92.6837", "population": "1287"}, {"city": "Middleton", "state_id": "WI", "lat": "43.1059", "lng": "-89.5073", "population": "19109"}, {"city": "Winneconne", "state_id": "WI", "lat": "44.1117", "lng": "-88.7108", "population": "3733.0"}, {"city": "Blanchardville", "state_id": "WI", "lat": "42.8093", "lng": "-89.8606", "population": "805"}, {"city": "Butternut", "state_id": "WI", "lat": "46.0132", "lng": "-90.4972", "population": "361"}, {"city": "Amery", "state_id": "WI", "lat": "45.3046", "lng": "-92.3634", "population": "2770.0"}, {"city": "Newburg", "state_id": "WI", "lat": "43.4321", "lng": "-88.0476", "population": "1229"}, {"city": "Gilman", "state_id": "WI", "lat": "45.1662", "lng": "-90.8072", "population": "395"}, {"city": "Ashland", "state_id": "WI", "lat": "46.5801", "lng": "-90.8715", "population": "7063.0"}, {"city": "Curtiss", "state_id": "WI", "lat": "44.9522", "lng": "-90.4348", "population": "216"}, {"city": "Waterford", "state_id": "WI", "lat": "42.7653", "lng": "-88.2164", "population": "5378"}, {"city": "Rochester", "state_id": "WI", "lat": "42.7337", "lng": "-88.2488", "population": "3782"}, {"city": "Hatley", "state_id": "WI", "lat": "44.8858", "lng": "-89.3371", "population": "605"}, {"city": "Orfordville", "state_id": "WI", "lat": "42.6294", "lng": "-89.2572", "population": "1490"}, {"city": "Delavan", "state_id": "WI", "lat": "42.6281", "lng": "-88.6324", "population": "12045.0"}, {"city": "Deerfield", "state_id": "WI", "lat": "43.0492", "lng": "-89.0762", "population": "2524"}, {"city": "Gays Mills", "state_id": "WI", "lat": "43.3220", "lng": "-90.8489", "population": "525"}, {"city": "Sparta", "state_id": "WI", "lat": "43.9403", "lng": "-90.8084", "population": "10086.0"}, {"city": "Crandon", "state_id": "WI", "lat": "45.5686", "lng": "-88.8973", "population": "1860"}, {"city": "De Forest", "state_id": "WI", "lat": "43.2319", "lng": "-89.3424", "population": "9690"}, {"city": "Wilton", "state_id": "WI", "lat": "43.8132", "lng": "-90.5268", "population": "503"}, {"city": "Belgium", "state_id": "WI", "lat": "43.5019", "lng": "-87.8476", "population": "2285"}, {"city": "White Lake", "state_id": "WI", "lat": "45.1619", "lng": "-88.7704", "population": "342"}, {"city": "De Soto", "state_id": "WI", "lat": "43.4283", "lng": "-91.1964", "population": "288"}, {"city": "La Crosse", "state_id": "WI", "lat": "43.8234", "lng": "-91.2279", "population": "102427.0"}, {"city": "Hobart", "state_id": "WI", "lat": "44.4965", "lng": "-88.1602", "population": "8599"}, {"city": "Whitewater", "state_id": "WI", "lat": "42.8371", "lng": "-88.7340", "population": "14352.0"}, {"city": "Pound", "state_id": "WI", "lat": "45.0957", "lng": "-88.0335", "population": "372"}, {"city": "Woodville", "state_id": "WI", "lat": "44.9485", "lng": "-92.2852", "population": "1349"}, {"city": "Horicon", "state_id": "WI", "lat": "43.4448", "lng": "-88.6380", "population": "3494.0"}, {"city": "Sister Bay", "state_id": "WI", "lat": "45.1835", "lng": "-87.1271", "population": "925"}, {"city": "Stevens Point", "state_id": "WI", "lat": "44.5240", "lng": "-89.5506", "population": "43735.0"}, {"city": "Chenequa", "state_id": "WI", "lat": "43.1230", "lng": "-88.3836", "population": "584"}, {"city": "Cecil", "state_id": "WI", "lat": "44.8111", "lng": "-88.4486", "population": "552"}, {"city": "Kewaunee", "state_id": "WI", "lat": "44.4607", "lng": "-87.5133", "population": "2548.0"}, {"city": "Oliver", "state_id": "WI", "lat": "46.6492", "lng": "-92.1883", "population": "400"}, {"city": "Prairie du Chien", "state_id": "WI", "lat": "43.0440", "lng": "-91.1390", "population": "6647.0"}, {"city": "Tigerton", "state_id": "WI", "lat": "44.7409", "lng": "-89.0465", "population": "716"}, {"city": "Clear Lake", "state_id": "WI", "lat": "45.2516", "lng": "-92.2693", "population": "1035"}, {"city": "River Hills", "state_id": "WI", "lat": "43.1718", "lng": "-87.9354", "population": "1592"}, {"city": "Kimberly", "state_id": "WI", "lat": "44.2670", "lng": "-88.3382", "population": "6739"}, {"city": "Sun Prairie", "state_id": "WI", "lat": "43.1829", "lng": "-89.2353", "population": "32820"}, {"city": "Big Bend", "state_id": "WI", "lat": "42.9024", "lng": "-88.2122", "population": "1316"}, {"city": "Ephraim", "state_id": "WI", "lat": "45.1589", "lng": "-87.1667", "population": "285"}, {"city": "Prairie du Sac", "state_id": "WI", "lat": "43.2922", "lng": "-89.7337", "population": "8397.0"}, {"city": "Oshkosh", "state_id": "WI", "lat": "44.0242", "lng": "-88.5610", "population": "75057.0"}, {"city": "Evansville", "state_id": "WI", "lat": "42.7781", "lng": "-89.2967", "population": "5954.0"}, {"city": "Marshfield", "state_id": "WI", "lat": "44.6633", "lng": "-90.1731", "population": "18760.0"}, {"city": "Ingram", "state_id": "WI", "lat": "45.5056", "lng": "-90.8137", "population": "73"}, {"city": "Grafton", "state_id": "WI", "lat": "43.3205", "lng": "-87.9482", "population": "11568"}, {"city": "Casco", "state_id": "WI", "lat": "44.5557", "lng": "-87.6197", "population": "578"}, {"city": "Cudahy", "state_id": "WI", "lat": "42.9467", "lng": "-87.8638", "population": "18200"}, {"city": "Elderon", "state_id": "WI", "lat": "44.7839", "lng": "-89.2478", "population": "180"}, {"city": "Sheboygan", "state_id": "WI", "lat": "43.7448", "lng": "-87.7317", "population": "70436.0"}, {"city": "Caledonia", "state_id": "WI", "lat": "42.7987", "lng": "-87.8763", "population": "24910"}, {"city": "Black Creek", "state_id": "WI", "lat": "44.4742", "lng": "-88.4506", "population": "1317"}, {"city": "Kennan", "state_id": "WI", "lat": "45.5300", "lng": "-90.5868", "population": "129"}, {"city": "Saint Croix Falls", "state_id": "WI", "lat": "45.4101", "lng": "-92.6268", "population": "2061"}, {"city": "East Troy", "state_id": "WI", "lat": "42.7848", "lng": "-88.3973", "population": "4307.0"}, {"city": "Wautoma", "state_id": "WI", "lat": "44.0669", "lng": "-89.2919", "population": "2474.0"}, {"city": "Benton", "state_id": "WI", "lat": "42.5702", "lng": "-90.3831", "population": "955"}, {"city": "Loyal", "state_id": "WI", "lat": "44.7366", "lng": "-90.4958", "population": "1240"}, {"city": "Thorp", "state_id": "WI", "lat": "44.9583", "lng": "-90.8024", "population": "1629"}, {"city": "Menomonee Falls", "state_id": "WI", "lat": "43.1487", "lng": "-88.1227", "population": "36769"}, {"city": "Rock Springs", "state_id": "WI", "lat": "43.4790", "lng": "-89.9177", "population": "371"}, {"city": "Luck", "state_id": "WI", "lat": "45.5718", "lng": "-92.4667", "population": "1073"}, {"city": "Rothschild", "state_id": "WI", "lat": "44.8761", "lng": "-89.6172", "population": "5347"}, {"city": "Fall River", "state_id": "WI", "lat": "43.3856", "lng": "-89.0454", "population": "1686"}, {"city": "Kingston", "state_id": "WI", "lat": "43.6932", "lng": "-89.1306", "population": "325"}, {"city": "Fennimore", "state_id": "WI", "lat": "42.9792", "lng": "-90.6492", "population": "2487"}, {"city": "Weston", "state_id": "WI", "lat": "44.8905", "lng": "-89.5488", "population": "15092"}, {"city": "Mayville", "state_id": "WI", "lat": "43.4987", "lng": "-88.5469", "population": "4922.0"}, {"city": "Marathon", "state_id": "WI", "lat": "44.9345", "lng": "-89.8402", "population": "1507"}, {"city": "Amherst Junction", "state_id": "WI", "lat": "44.4686", "lng": "-89.3170", "population": "375"}, {"city": "Germantown", "state_id": "WI", "lat": "43.2343", "lng": "-88.1217", "population": "20027"}, {"city": "Menominee", "state_id": "WI", "lat": "44.8893", "lng": "-91.9087", "population": "18063.0"}, {"city": "Boyceville", "state_id": "WI", "lat": "45.0428", "lng": "-92.0388", "population": "1097"}, {"city": "Ellsworth", "state_id": "WI", "lat": "44.7364", "lng": "-92.4807", "population": "2775.0"}, {"city": "Steuben", "state_id": "WI", "lat": "43.1833", "lng": "-90.8569", "population": "128"}, {"city": "Brillion", "state_id": "WI", "lat": "44.1755", "lng": "-88.0708", "population": "2947.0"}, {"city": "New London", "state_id": "WI", "lat": "44.3950", "lng": "-88.7393", "population": "7512.0"}, {"city": "Hammond", "state_id": "WI", "lat": "44.9687", "lng": "-92.4379", "population": "1891"}, {"city": "Reedsburg", "state_id": "WI", "lat": "43.5346", "lng": "-89.9971", "population": "9526.0"}, {"city": "Elkhart Lake", "state_id": "WI", "lat": "43.8323", "lng": "-88.0147", "population": "965"}, {"city": "North Hudson", "state_id": "WI", "lat": "44.9971", "lng": "-92.7563", "population": "3817"}, {"city": "Port Washington", "state_id": "WI", "lat": "43.3847", "lng": "-87.8851", "population": "11642"}, {"city": "Doylestown", "state_id": "WI", "lat": "43.4276", "lng": "-89.1458", "population": "299"}, {"city": "Fairwater", "state_id": "WI", "lat": "43.7424", "lng": "-88.8680", "population": "366"}, {"city": "Maiden Rock", "state_id": "WI", "lat": "44.5660", "lng": "-92.3079", "population": "120"}, {"city": "Sullivan", "state_id": "WI", "lat": "43.0119", "lng": "-88.5903", "population": "668"}, {"city": "Independence", "state_id": "WI", "lat": "44.3622", "lng": "-91.4188", "population": "1337"}, {"city": "Kiel", "state_id": "WI", "lat": "43.9167", "lng": "-88.0266", "population": "6841.0"}, {"city": "Westby", "state_id": "WI", "lat": "43.6530", "lng": "-90.8583", "population": "2271"}, {"city": "Mount Horeb", "state_id": "WI", "lat": "43.0061", "lng": "-89.7317", "population": "7448.0"}, {"city": "Random Lake", "state_id": "WI", "lat": "43.5544", "lng": "-87.9549", "population": "1592"}, {"city": "Whitelaw", "state_id": "WI", "lat": "44.1452", "lng": "-87.8281", "population": "739"}, {"city": "West Milwaukee", "state_id": "WI", "lat": "43.0124", "lng": "-87.9710", "population": "4174"}, {"city": "Camp Douglas", "state_id": "WI", "lat": "43.9197", "lng": "-90.2699", "population": "616"}, {"city": "Tomahawk", "state_id": "WI", "lat": "45.4746", "lng": "-89.7229", "population": "2757.0"}, {"city": "Dodgeville", "state_id": "WI", "lat": "42.9653", "lng": "-90.1304", "population": "4814.0"}, {"city": "Trempealeau", "state_id": "WI", "lat": "44.0038", "lng": "-91.4301", "population": "1618"}, {"city": "Loganville", "state_id": "WI", "lat": "43.4386", "lng": "-90.0372", "population": "309"}, {"city": "Sauk City", "state_id": "WI", "lat": "43.2722", "lng": "-89.7306", "population": "3495"}, {"city": "Fountain City", "state_id": "WI", "lat": "44.1201", "lng": "-91.6969", "population": "849"}, {"city": "Lomira", "state_id": "WI", "lat": "43.5944", "lng": "-88.4425", "population": "2366"}, {"city": "Dickeyville", "state_id": "WI", "lat": "42.6263", "lng": "-90.5929", "population": "1045"}, {"city": "Fall Creek", "state_id": "WI", "lat": "44.7639", "lng": "-91.2783", "population": "1306"}, {"city": "Mattoon", "state_id": "WI", "lat": "45.0046", "lng": "-89.0415", "population": "416"}, {"city": "Shiocton", "state_id": "WI", "lat": "44.4449", "lng": "-88.5767", "population": "919"}, {"city": "South Milwaukee", "state_id": "WI", "lat": "42.9119", "lng": "-87.8624", "population": "21052"}, {"city": "Rio", "state_id": "WI", "lat": "43.4498", "lng": "-89.2390", "population": "1046"}, {"city": "Elm Grove", "state_id": "WI", "lat": "43.0480", "lng": "-88.0867", "population": "6174"}, {"city": "Marion", "state_id": "WI", "lat": "44.6743", "lng": "-88.8902", "population": "1207"}, {"city": "Darlington", "state_id": "WI", "lat": "42.6783", "lng": "-90.1185", "population": "2376"}, {"city": "Johnson Creek", "state_id": "WI", "lat": "43.0812", "lng": "-88.7701", "population": "2899.0"}, {"city": "Cadott", "state_id": "WI", "lat": "44.9500", "lng": "-91.1537", "population": "1424"}, {"city": "Kekoskee", "state_id": "WI", "lat": "43.5268", "lng": "-88.5616", "population": "157"}, {"city": "Mondovi", "state_id": "WI", "lat": "44.5712", "lng": "-91.6667", "population": "2634"}, {"city": "Jackson", "state_id": "WI", "lat": "43.3244", "lng": "-88.1668", "population": "6933"}, {"city": "Maribel", "state_id": "WI", "lat": "44.2775", "lng": "-87.8025", "population": "342"}, {"city": "Bayfield", "state_id": "WI", "lat": "46.8141", "lng": "-90.8226", "population": "475"}, {"city": "Francis Creek", "state_id": "WI", "lat": "44.2005", "lng": "-87.7211", "population": "648"}, {"city": "Unity", "state_id": "WI", "lat": "44.8512", "lng": "-90.3130", "population": "342"}, {"city": "Lohrville", "state_id": "WI", "lat": "44.0383", "lng": "-89.1202", "population": "383"}, {"city": "Butler", "state_id": "WI", "lat": "43.1085", "lng": "-88.0713", "population": "1820"}, {"city": "Fenwood", "state_id": "WI", "lat": "44.8658", "lng": "-90.0146", "population": "153"}, {"city": "Clintonville", "state_id": "WI", "lat": "44.6221", "lng": "-88.7514", "population": "4330.0"}, {"city": "Appleton", "state_id": "WI", "lat": "44.2775", "lng": "-88.3896", "population": "221379.0"}, {"city": "Linden", "state_id": "WI", "lat": "42.9185", "lng": "-90.2742", "population": "530"}, {"city": "Boaz", "state_id": "WI", "lat": "43.3299", "lng": "-90.5278", "population": "151"}, {"city": "La Valle", "state_id": "WI", "lat": "43.5831", "lng": "-90.1304", "population": "363"}, {"city": "Glen Flora", "state_id": "WI", "lat": "45.4970", "lng": "-90.8935", "population": "87"}, {"city": "Blair", "state_id": "WI", "lat": "44.2955", "lng": "-91.2270", "population": "1386"}, {"city": "Shullsburg", "state_id": "WI", "lat": "42.5732", "lng": "-90.2321", "population": "1209"}, {"city": "Oregon", "state_id": "WI", "lat": "42.9252", "lng": "-89.3887", "population": "12297.0"}, {"city": "Brookfield", "state_id": "WI", "lat": "43.0640", "lng": "-88.1231", "population": "38016"}, {"city": "Walworth", "state_id": "WI", "lat": "42.5312", "lng": "-88.5967", "population": "4416.0"}, {"city": "Berlin", "state_id": "WI", "lat": "43.9706", "lng": "-88.9503", "population": "4777.0"}, {"city": "Cambria", "state_id": "WI", "lat": "43.5416", "lng": "-89.1110", "population": "756"}, {"city": "West Salem", "state_id": "WI", "lat": "43.8989", "lng": "-91.0881", "population": "4967"}, {"city": "Barneveld", "state_id": "WI", "lat": "43.0118", "lng": "-89.8972", "population": "1226"}, {"city": "Monticello", "state_id": "WI", "lat": "42.7455", "lng": "-89.5899", "population": "1220"}, {"city": "Soldiers Grove", "state_id": "WI", "lat": "43.3921", "lng": "-90.7735", "population": "552"}, {"city": "Spring Valley", "state_id": "WI", "lat": "44.8501", "lng": "-92.2435", "population": "1348"}, {"city": "Edgar", "state_id": "WI", "lat": "44.9227", "lng": "-89.9627", "population": "1454"}, {"city": "Cochrane", "state_id": "WI", "lat": "44.2281", "lng": "-91.8391", "population": "419"}, {"city": "Dousman", "state_id": "WI", "lat": "43.0075", "lng": "-88.4771", "population": "2317"}, {"city": "Nekoosa", "state_id": "WI", "lat": "44.3134", "lng": "-89.9073", "population": "2443"}, {"city": "Hollandale", "state_id": "WI", "lat": "42.8756", "lng": "-89.9342", "population": "288"}, {"city": "Dane", "state_id": "WI", "lat": "43.2501", "lng": "-89.4998", "population": "1125"}, {"city": "Cottage Grove", "state_id": "WI", "lat": "43.0913", "lng": "-89.2023", "population": "6996"}, {"city": "Friendship", "state_id": "WI", "lat": "43.9720", "lng": "-89.8203", "population": "659"}, {"city": "Arpin", "state_id": "WI", "lat": "44.5394", "lng": "-90.0319", "population": "320"}, {"city": "Adell", "state_id": "WI", "lat": "43.6214", "lng": "-87.9481", "population": "520"}, {"city": "Stratford", "state_id": "WI", "lat": "44.8009", "lng": "-90.0723", "population": "1571"}, {"city": "Vesper", "state_id": "WI", "lat": "44.4805", "lng": "-89.9675", "population": "554"}, {"city": "Stetsonville", "state_id": "WI", "lat": "45.0772", "lng": "-90.3143", "population": "522"}, {"city": "Lancaster", "state_id": "WI", "lat": "42.8473", "lng": "-90.7064", "population": "3585.0"}, {"city": "Saint Francis", "state_id": "WI", "lat": "42.9716", "lng": "-87.8730", "population": "9466"}, {"city": "Rockdale", "state_id": "WI", "lat": "42.9717", "lng": "-89.0317", "population": "221"}, {"city": "Muscoda", "state_id": "WI", "lat": "43.1873", "lng": "-90.4338", "population": "1249"}, {"city": "Sheboygan Falls", "state_id": "WI", "lat": "43.7289", "lng": "-87.8262", "population": "7824"}, {"city": "Lake Delton", "state_id": "WI", "lat": "43.5937", "lng": "-89.7842", "population": "5585.0"}, {"city": "Sherwood", "state_id": "WI", "lat": "44.1765", "lng": "-88.2756", "population": "2886"}, {"city": "Solon Springs", "state_id": "WI", "lat": "46.3495", "lng": "-91.8208", "population": "600"}, {"city": "Cobb", "state_id": "WI", "lat": "42.9664", "lng": "-90.3289", "population": "461"}, {"city": "Eagle River", "state_id": "WI", "lat": "45.9250", "lng": "-89.2566", "population": "1419"}, {"city": "Prentice", "state_id": "WI", "lat": "45.5408", "lng": "-90.2895", "population": "619"}, {"city": "West Baraboo", "state_id": "WI", "lat": "43.4815", "lng": "-89.7719", "population": "1442"}, {"city": "De Pere", "state_id": "WI", "lat": "44.4312", "lng": "-88.0795", "population": "24893"}, {"city": "Stoughton", "state_id": "WI", "lat": "42.9237", "lng": "-89.2219", "population": "13134"}, {"city": "North Prairie", "state_id": "WI", "lat": "42.9357", "lng": "-88.4035", "population": "2198"}, {"city": "Brooklyn", "state_id": "WI", "lat": "42.8525", "lng": "-89.3723", "population": "1450"}, {"city": "Conrath", "state_id": "WI", "lat": "45.3842", "lng": "-91.0357", "population": "92"}, {"city": "Footville", "state_id": "WI", "lat": "42.6715", "lng": "-89.2084", "population": "803"}, {"city": "Couderay", "state_id": "WI", "lat": "45.7977", "lng": "-91.3005", "population": "87"}, {"city": "Fairchild", "state_id": "WI", "lat": "44.6036", "lng": "-90.9577", "population": "579"}, {"city": "Princeton", "state_id": "WI", "lat": "43.8528", "lng": "-89.1305", "population": "1175"}, {"city": "Schofield", "state_id": "WI", "lat": "44.9152", "lng": "-89.6146", "population": "2189"}, {"city": "West Allis", "state_id": "WI", "lat": "43.0068", "lng": "-88.0296", "population": "60087"}, {"city": "Livingston", "state_id": "WI", "lat": "42.9001", "lng": "-90.4337", "population": "647"}, {"city": "Readstown", "state_id": "WI", "lat": "43.4485", "lng": "-90.7590", "population": "417"}, {"city": "Oostburg", "state_id": "WI", "lat": "43.6238", "lng": "-87.7891", "population": "2816.0"}, {"city": "Tomah", "state_id": "WI", "lat": "43.9882", "lng": "-90.4996", "population": "9311.0"}, {"city": "Big Falls", "state_id": "WI", "lat": "44.6174", "lng": "-89.0166", "population": "61"}, {"city": "Marshall", "state_id": "WI", "lat": "43.1726", "lng": "-89.0614", "population": "3909.0"}, {"city": "Potosi", "state_id": "WI", "lat": "42.6875", "lng": "-90.7108", "population": "675"}, {"city": "Altoona", "state_id": "WI", "lat": "44.8029", "lng": "-91.4387", "population": "7489"}, {"city": "Niagara", "state_id": "WI", "lat": "45.7802", "lng": "-87.9992", "population": "1572"}, {"city": "Harrison", "state_id": "WI", "lat": "44.2265", "lng": "-88.3312", "population": "9561"}, {"city": "Cleveland", "state_id": "WI", "lat": "43.9177", "lng": "-87.7469", "population": "1460"}, {"city": "Holmen", "state_id": "WI", "lat": "43.9697", "lng": "-91.2686", "population": "9628"}, {"city": "Allouez", "state_id": "WI", "lat": "44.4720", "lng": "-88.0261", "population": "13896"}, {"city": "Hustisford", "state_id": "WI", "lat": "43.3459", "lng": "-88.6051", "population": "1096"}, {"city": "Cumberland", "state_id": "WI", "lat": "45.5362", "lng": "-92.0263", "population": "2135"}, {"city": "Maple Bluff", "state_id": "WI", "lat": "43.1131", "lng": "-89.3717", "population": "1339"}, {"city": "Athens", "state_id": "WI", "lat": "45.0346", "lng": "-90.0791", "population": "1092"}, {"city": "Yuba", "state_id": "WI", "lat": "43.5364", "lng": "-90.4267", "population": "72"}, {"city": "Pulaski", "state_id": "WI", "lat": "44.6684", "lng": "-88.2354", "population": "3368.0"}, {"city": "Wisconsin Dells", "state_id": "WI", "lat": "43.6338", "lng": "-89.7756", "population": "2808"}, {"city": "Viola", "state_id": "WI", "lat": "43.5070", "lng": "-90.6734", "population": "672"}, {"city": "Cassville", "state_id": "WI", "lat": "42.7156", "lng": "-90.9890", "population": "920"}, {"city": "Scandinavia", "state_id": "WI", "lat": "44.4608", "lng": "-89.1460", "population": "364"}, {"city": "Fox Point", "state_id": "WI", "lat": "43.1582", "lng": "-87.9015", "population": "6691"}, {"city": "Lowell", "state_id": "WI", "lat": "43.3363", "lng": "-88.8184", "population": "322"}, {"city": "West Bend", "state_id": "WI", "lat": "43.4184", "lng": "-88.1823", "population": "69810.0"}, {"city": "Mount Hope", "state_id": "WI", "lat": "42.9696", "lng": "-90.8591", "population": "224"}, {"city": "Lannon", "state_id": "WI", "lat": "43.1521", "lng": "-88.1601", "population": "1143"}, {"city": "Lynxville", "state_id": "WI", "lat": "43.2493", "lng": "-91.0464", "population": "129"}, {"city": "Galesville", "state_id": "WI", "lat": "44.0834", "lng": "-91.3583", "population": "1537"}, {"city": "Blue River", "state_id": "WI", "lat": "43.1851", "lng": "-90.5715", "population": "417"}, {"city": "Embarrass", "state_id": "WI", "lat": "44.6685", "lng": "-88.7036", "population": "389"}, {"city": "Combined Locks", "state_id": "WI", "lat": "44.2642", "lng": "-88.3065", "population": "3577"}, {"city": "Waukesha", "state_id": "WI", "lat": "43.0088", "lng": "-88.2462", "population": "72363"}, {"city": "Alma", "state_id": "WI", "lat": "44.3365", "lng": "-91.9223", "population": "721"}, {"city": "Bear Creek", "state_id": "WI", "lat": "44.5313", "lng": "-88.7275", "population": "433"}, {"city": "Thiensville", "state_id": "WI", "lat": "43.2361", "lng": "-87.9784", "population": "3179"}, {"city": "Howards Grove", "state_id": "WI", "lat": "43.8264", "lng": "-87.8234", "population": "3261"}, {"city": "Iron Ridge", "state_id": "WI", "lat": "43.3982", "lng": "-88.5321", "population": "898"}, {"city": "Bristol", "state_id": "WI", "lat": "42.5378", "lng": "-88.0150", "population": "5008"}, {"city": "Mosinee", "state_id": "WI", "lat": "44.7869", "lng": "-89.6837", "population": "4012"}, {"city": "Glendale", "state_id": "WI", "lat": "43.1289", "lng": "-87.9277", "population": "12779"}, {"city": "Monroe", "state_id": "WI", "lat": "42.6010", "lng": "-89.6437", "population": "10777.0"}, {"city": "Whiting", "state_id": "WI", "lat": "44.4906", "lng": "-89.5603", "population": "1721"}, {"city": "Two Rivers", "state_id": "WI", "lat": "44.1565", "lng": "-87.5824", "population": "11261"}, {"city": "Wisconsin Rapids", "state_id": "WI", "lat": "44.3930", "lng": "-89.8262", "population": "28406.0"},